{
  "name": "Alola",
  "starterPokemon": [
    "Rowlet",
    "Litten",
    "Popplio"
  ],
  "startingLocation": "Hau'oli Outskirts",
  "professor": "Kukui",
  "locations": [
    {
      "name": "Hau'oli Outskirts",
      "description": "An area located between Hau'oli City and Route 1. You can catch a whiff of salt on the southerly winds.",
      "island": "Melemele Island",
      "connections": [
        {
          "region": "Alola",
          "location": "Route 1",
          "direction": "a"
        }
      ]
    },
    {
      "name": "Iki Town",
      "description": "An old town where traditions have been passed on for generations. The villagers here are close with Tapu Koko.",
      "island": "Melemele Island",
      "connections": [
        {
          "region": "Alola",
          "location": "Route 1",
          "direction": "s"
        },
        {
          "region": "Alola",
          "location": "Mahalo Trail",
          "direction": "a"
        }
      ]
    },
    {
      "name": "Hau'oli City",
      "description": "A popular spot where locals like to gather. Even people from other towns come to Hau'oli City to visit this beach. The center of the city, where more and more people have become fashion conscious to take commemorative photos. A harbor where you can set out for the other islands. It's visited by many people and boats.",
      "island": "Melemele Island",
      "connections": [
        {
          "region": "Alola",
          "location": "Route 2",
          "direction": "n"
        },
        {
          "region": "Alola",
          "location": "Route 1",
          "direction": "e"
        },
        {
          "region": "Alola",
          "location": "Melemele Sea",
          "direction": "a"
        },
        {
          "region": "Alola",
          "location": "Heahea City",
          "direction": "a"
        },
        {
          "region": "Alola",
          "location": "Seafolk Village",
          "direction": "a"
        },
        {
          "region": "Alola",
          "location": "Aether Paradise",
          "direction": "a"
        }
      ]
    },
    {
      "name": "Heahea City",
      "description": "Considered the \"front door\" to Akala Island, this town's residents treasure visitors and welcome them most warmly.",
      "island": "Akala Island",
      "connections": [
        {
          "region": "Alola",
          "location": "Route 6",
          "direction": "n"
        },
        {
          "region": "Alola",
          "location": "Route 4",
          "direction": "e"
        },
        {
          "region": "Alola",
          "location": "Hano Grand Resort",
          "direction": "a"
        },
        {
          "region": "Alola",
          "location": "Heahea Beach",
          "direction": "a"
        },
        {
          "region": "Alola",
          "location": "Diglett's Tunnel",
          "direction": "a"
        },
        {
          "region": "Alola",
          "location": "Hau'oli City",
          "direction": "a"
        },
        {
          "region": "Alola",
          "location": "Malie City",
          "direction": "a"
        },
        {
          "region": "Alola",
          "location": "Seafolk Village",
          "direction": "a"
        },
        {
          "region": "Alola",
          "location": "Aether Paradise",
          "direction": "a"
        }
      ]
    },
    {
      "name": "Paniola Town",
      "description": "A town located in the middle of Akala Island and surrounded by ranch land and pastures for grazing.",
      "island": "Akala Island",
      "connections": [
        {
          "region": "Alola",
          "location": "Route 6",
          "direction": "e"
        },
        {
          "region": "Alola",
          "location": "Route 4",
          "direction": "s"
        },
        {
          "region": "Alola",
          "location": "Paniola Ranch",
          "direction": "a"
        }
      ]
    },
    {
      "name": "Konikoni City",
      "description": "This is a city of merchants, where you find lots of shops and even a photo club, beyond the gate at the entrance.",
      "island": "Akala Island",
      "connections": [
        {
          "region": "Alola",
          "location": "Route 9",
          "direction": "s"
        },
        {
          "region": "Alola",
          "location": "Diglett's Tunnel",
          "direction": "a"
        }
      ]
    },
    {
      "name": "Malie City",
      "description": "A city with an obvious Eastern influence in its design. The architecture is distinctive here. Its cape is famous for its Recycling Plant. The plant is co-managed by people and Pokémon.",
      "island": "Ula'ula Island",
      "connections": [
        {
          "region": "Alola",
          "location": "Route 10",
          "direction": "w"
        },
        {
          "region": "Alola",
          "location": "Route 11",
          "direction": "s"
        },
        {
          "region": "Alola",
          "location": "Malie Garden",
          "direction": "a"
        },
        {
          "region": "Alola",
          "location": "Heahea City",
          "direction": "a"
        },
        {
          "region": "Alola",
          "location": "Aether Paradise",
          "direction": "a"
        }
      ]
    },
    {
      "name": "Tapu Village",
      "description": "The remains of a village said to have been destroyed by the island's tapu when the people roused its anger.",
      "island": "Ula'ula Island",
      "connections": [
        {
          "region": "Alola",
          "location": "Route 15",
          "direction": "n"
        },
        {
          "region": "Alola",
          "location": "Route 13",
          "direction": "e"
        },
        {
          "region": "Alola",
          "location": "Route 14",
          "direction": "s"
        },
        {
          "region": "Alola",
          "location": "Mount Lanakila",
          "direction": "a"
        }
      ]
    },
    {
      "name": "Po Town",
      "description": "A town barricaded with tall walls that seem to reach the sky. It is occupied by Team Skull.",
      "island": "Ula'ula Island",
      "connections": [
        {
          "region": "Alola",
          "location": "Route 17",
          "direction": "s"
        },
        {
          "region": "Alola",
          "location": "Shady House",
          "direction": "a"
        }
      ]
    },
    {
      "name": "Seafolk Village",
      "description": "The village of a wandering people who live on ships. They all seem to love living free and unfettered.",
      "island": "Poni Island",
      "connections": [
        {
          "region": "Alola",
          "location": "Poni Wilds",
          "direction": "a"
        },
        {
          "region": "Alola",
          "location": "Hau'oli City",
          "direction": "a"
        },
        {
          "region": "Alola",
          "location": "Heahea City",
          "direction": "a"
        },
        {
          "region": "Alola",
          "location": "Exeggutor Island",
          "direction": "a"
        }
      ]
    },
    {
      "name": "Pokémon League",
      "description": "The place where the most powerful Trainer in the Alola region will be decided. Coming soon!",
      "island": "Ula'ula Island",
      "connections": [
        {
          "region": "Alola",
          "location": "Mount Lanakila",
          "direction": "a"
        }
      ]
    },
    {
      "name": "Route 1",
      "description": "This beautiful path filled with flora connects Iki Town at its north end to Hau'oli City in the south.",
      "island": "Melemele Island",
      "connections": [
        {
          "region": "Alola",
          "location": "Route 3",
          "direction": "n"
        },
        {
          "region": "Alola",
          "location": "Iki Town",
          "direction": "n"
        },
        {
          "region": "Alola",
          "location": "Hau'oli City",
          "direction": "w"
        },
        {
          "region": "Alola",
          "location": "Hau'oli Outskirts",
          "direction": "a"
        },
        {
          "region": "Alola",
          "location": "Melemele Sea",
          "direction": "a"
        },
        {
          "region": "Alola",
          "location": "Trainers' School",
          "direction": "a"
        },
        {
          "region": "Alola",
          "location": "Ten Carat Hill",
          "direction": "a"
        }
      ]
    },
    {
      "name": "Route 2",
      "description": "A path that leads to the northern part of Melemele Island. It's famous for being a training ground for the local Trainers.",
      "island": "Melemele Island",
      "connections": [
        {
          "region": "Alola",
          "location": "Route 3",
          "direction": "n"
        },
        {
          "region": "Alola",
          "location": "Hau'oli City",
          "direction": "s"
        },
        {
          "region": "Alola",
          "location": "Verdant Cavern",
          "direction": "a"
        },
        {
          "region": "Alola",
          "location": "Berry Fields",
          "direction": "a"
        },
        {
          "region": "Alola",
          "location": "Hau'oli Cemetery",
          "direction": "a"
        },
        {
          "region": "Alola",
          "location": "Big Wave Beach",
          "direction": "a"
        }
      ]
    },
    {
      "name": "Route 3",
      "description": "A steep mountain path surrounded by rocks where a lot of bird Pokémon live.",
      "island": "Melemele Island",
      "connections": [
        {
          "region": "Alola",
          "location": "Route 2",
          "direction": "w"
        },
        {
          "region": "Alola",
          "location": "Route 1",
          "direction": "s"
        },
        {
          "region": "Alola",
          "location": "Melemele Meadow",
          "direction": "a"
        },
        {
          "region": "Alola",
          "location": "Seaward Cave",
          "direction": "a"
        }
      ]
    },
    {
      "name": "Route 4",
      "description": "A route that connects Heahea City and Paniola Town. The gentle touch of nature is abundant here.",
      "island": "Akala Island",
      "connections": [
        {
          "region": "Alola",
          "location": "Paniola Town",
          "direction": "n"
        },
        {
          "region": "Alola",
          "location": "Heahea City",
          "direction": "w"
        },
        {
          "region": "Alola",
          "location": "Pikachu Valley",
          "direction": "a"
        }
      ]
    },
    {
      "name": "Route 5",
      "description": "A winding route with many branching paths and ledges. It is quite challenging for people traveling on foot.",
      "island": "Akala Island",
      "connections": [
        {
          "region": "Alola",
          "location": "Route 8",
          "direction": "w"
        },
        {
          "region": "Alola",
          "location": "Lush Jungle",
          "direction": "w"
        },
        {
          "region": "Alola",
          "location": "Brooklet Hill",
          "direction": "a"
        },
        {
          "region": "Alola",
          "location": "Paniola Ranch",
          "direction": "a"
        }
      ]
    },
    {
      "name": "Route 6",
      "description": "A plain and straight route that leads through the middle of Akala Island. It is also known by the name \"Straight Street.\"",
      "island": "Akala Island",
      "connections": [
        {
          "region": "Alola",
          "location": "Heahea City",
          "direction": "s"
        },
        {
          "region": "Alola",
          "location": "Paniola Ranch",
          "direction": "a"
        },
        {
          "region": "Alola",
          "location": "Royal Avenue",
          "direction": "a"
        },
        {
          "region": "Alola",
          "location": "Paniola Town",
          "direction": "a"
        }
      ]
    },
    {
      "name": "Route 7",
      "description": "A route that takes you to Wela Volcano Park. It makes anyone sweat from the heat of the volcano.",
      "island": "Akala Island",
      "connections": [
        {
          "region": "Alola",
          "location": "Route 8",
          "direction": "n"
        },
        {
          "region": "Alola",
          "location": "Dividing Peak Tunnel",
          "direction": "a"
        },
        {
          "region": "Alola",
          "location": "Wela Volcano Park",
          "direction": "a"
        },
        {
          "region": "Alola",
          "location": "Royal Avenue",
          "direction": "a"
        }
      ]
    },
    {
      "name": "Route 8",
      "description": "An oceanside route with great views. It is a popular date spot enjoyed by many couples and Pokémon.",
      "island": "Akala Island",
      "connections": [
        {
          "region": "Alola",
          "location": "Route 5",
          "direction": "s"
        },
        {
          "region": "Alola",
          "location": "Route 7",
          "direction": "a"
        }
      ]
    },
    {
      "name": "Route 9",
      "description": "A short route constructed by the local Diglett with whatever strength they had remaining after digging Diglett's Tunnel.",
      "island": "Akala Island",
      "connections": [
        {
          "region": "Alola",
          "location": "Konikoni City",
          "direction": "w"
        },
        {
          "region": "Alola",
          "location": "Diglett's Tunnel",
          "direction": "a"
        },
        {
          "region": "Alola",
          "location": "Memorial Hill",
          "direction": "a"
        }
      ]
    },
    {
      "name": "Route 10",
      "description": "A gladed path filled with the nests of many Pokémon. It leads to the road that can take you to the top of Mount Hokulani.",
      "island": "Ula'ula Island",
      "connections": [
        {
          "region": "Alola",
          "location": "Malie City",
          "direction": "e"
        },
        {
          "region": "Alola",
          "location": "Mount Hokulani",
          "direction": "a"
        }
      ]
    },
    {
      "name": "Route 11",
      "description": "One of the routes that connects Malie City with the nature surrounding it. This one leads to a rough mountain trail.",
      "island": "Ula'ula Island",
      "connections": [
        {
          "region": "Alola",
          "location": "Malie City",
          "direction": "n"
        },
        {
          "region": "Alola",
          "location": "Route 12",
          "direction": "e"
        }
      ]
    },
    {
      "name": "Route 12",
      "description": "A route full of rugged boulders that present a difficult challenge to anyone who hopes to pass through it.",
      "island": "Ula'ula Island",
      "connections": [
        {
          "region": "Alola",
          "location": "Route 11",
          "direction": "w"
        },
        {
          "region": "Alola",
          "location": "Route 13",
          "direction": "w"
        },
        {
          "region": "Alola",
          "location": "Blush Mountain",
          "direction": "a"
        },
        {
          "region": "Alola",
          "location": "Ula'ula Beach",
          "direction": "a"
        }
      ]
    },
    {
      "name": "Route 13",
      "description": "A route considered by many to be a place to take a break before taking on Haina Desert.",
      "island": "Ula'ula Island",
      "connections": [
        {
          "region": "Alola",
          "location": "Route 12",
          "direction": "e"
        },
        {
          "region": "Alola",
          "location": "Tapu Village",
          "direction": "w"
        },
        {
          "region": "Alola",
          "location": "Haina Desert",
          "direction": "a"
        }
      ]
    },
    {
      "name": "Route 14",
      "description": "An old route that leads to a trial site. Its beach is famous for its unique black sand.",
      "island": "Ula'ula Island",
      "connections": [
        {
          "region": "Alola",
          "location": "Tapu Village",
          "direction": "e"
        },
        {
          "region": "Alola",
          "location": "Thrifty Megamart (Abandoned Site)",
          "direction": "a"
        }
      ]
    },
    {
      "name": "Route 15",
      "description": "A water route that lies on the western coast of Ula'ula Island. People often rely on Pokémon to traverse it.",
      "island": "Ula'ula Island",
      "connections": [
        {
          "region": "Alola",
          "location": "Route 16",
          "direction": "n"
        },
        {
          "region": "Alola",
          "location": "Tapu Village",
          "direction": "s"
        },
        {
          "region": "Alola",
          "location": "Aether House",
          "direction": "a"
        }
      ]
    },
    {
      "name": "Route 16",
      "description": "Trainers all take a little break at the Pokémon Center here before they proceed to Ula'ula Meadow.",
      "island": "Ula'ula Island",
      "connections": [
        {
          "region": "Alola",
          "location": "Route 15",
          "direction": "s"
        },
        {
          "region": "Alola",
          "location": "Ula'ula Meadow",
          "direction": "a"
        }
      ]
    },
    {
      "name": "Route 17",
      "description": "The rain never stops falling in sheets on this route. This path always seems to inspire a sense of unease.",
      "island": "Ula'ula Island",
      "connections": [
        {
          "region": "Alola",
          "location": "Po Town",
          "direction": "n"
        },
        {
          "region": "Alola",
          "location": "Ula'ula Meadow",
          "direction": "a"
        }
      ]
    },
    {
      "name": "Mahalo Trail",
      "description": "A mountainous trail that leads to the sacred ruins. The cool air up here is very soothing on the skin.",
      "island": "Melemele Island",
      "connections": [
        {
          "region": "Alola",
          "location": "Iki Town",
          "direction": "a"
        },
        {
          "region": "Alola",
          "location": "Ruins of Conflict",
          "direction": "a"
        }
      ]
    },
    {
      "name": "Trainers' School",
      "description": "A school just outside of Hau'oli City where young Trainers can learn how to battle with Pokémon.",
      "island": "Melemele Island",
      "connections": [
        {
          "region": "Alola",
          "location": "Route 1",
          "direction": "a"
        }
      ]
    },
    {
      "name": "Hau'oli Cemetery",
      "description": "The people and Pokémon on Melemele Island share their lives, and here they have also shared their graves for generations.",
      "island": "Melemele Island",
      "connections": [
        {
          "region": "Alola",
          "location": "Route 2",
          "direction": "a"
        }
      ]
    },
    {
      "name": "Berry Fields",
      "description": "A Berry field with soft soil. It is the pride and joy of the local Berry master.",
      "island": "Melemele Island",
      "connections": [
        {
          "region": "Alola",
          "location": "Route 2",
          "direction": "a"
        }
      ]
    },
    {
      "name": "Verdant Cavern",
      "description": "A cave with a great variety of plants thriving inside it. The light shafting in from above makes for a breathtaking sight.",
      "island": "Melemele Island",
      "connections": [
        {
          "region": "Alola",
          "location": "Route 2",
          "direction": "a"
        }
      ]
    },
    {
      "name": "Melemele Meadow",
      "description": "A place where yellow flowers bloom in abundance. You can gather the nectar Oricorio loves to feed on here.",
      "island": "Melemele Island",
      "connections": [
        {
          "region": "Alola",
          "location": "Route 3",
          "direction": "a"
        }
      ]
    },
    {
      "name": "Seaward Cave",
      "description": "A cave that connects Melemele Meadow and Kala'e Bay. It is filled with salty smell of the sea.",
      "island": "Melemele Island",
      "connections": [
        {
          "region": "Alola",
          "location": "Route 3",
          "direction": "a"
        },
        {
          "region": "Alola",
          "location": "Kala'e Bay",
          "direction": "a"
        }
      ]
    },
    {
      "name": "Kala'e Bay",
      "description": "One of the most scenic spots on Melemele Island. It was chosen as one of the top 100 views in Alola.",
      "island": "Melemele Island",
      "connections": [
        {
          "region": "Alola",
          "location": "Seaward Cave",
          "direction": "a"
        }
      ]
    },
    {
      "name": "Ten Carat Hill",
      "description": "A great hill formed by the activity of an underwater volcano. It is famous for the hollow in its middle that is open to the air.",
      "island": "Melemele Island",
      "connections": [
        {
          "region": "Alola",
          "location": "Route 1",
          "direction": "a"
        }
      ]
    },
    {
      "name": "Paniola Ranch",
      "description": "The ranch managed together by the people and Pokémon living in Paniola Town.",
      "island": "Akala Island",
      "connections": [
        {
          "region": "Alola",
          "location": "Paniola Town",
          "direction": "a"
        },
        {
          "region": "Alola",
          "location": "Route 5",
          "direction": "a"
        },
        {
          "region": "Alola",
          "location": "Route 6",
          "direction": "a"
        }
      ]
    },
    {
      "name": "Brooklet Hill",
      "description": "The best fishing spot in the Alola region. Its series of cascading waterfalls make it look like a terrace field.",
      "island": "Akala Island",
      "connections": [
        {
          "region": "Alola",
          "location": "Route 5",
          "direction": "a"
        }
      ]
    },
    {
      "name": "Melemele Sea",
      "description": "The vast sea spreads, and various Pokémon live among rocks. The sea is crowded with Melemele islanders, local Pokémon, and visiting tourists all year round.",
      "island": "Melemele Island",
      "connections": [
        {
          "region": "Alola",
          "location": "Hau'oli City",
          "direction": "a"
        },
        {
          "region": "Alola",
          "location": "Route 1",
          "direction": "a"
        }
      ]
    },
    {
      "name": "Diglett's Tunnel",
      "description": "Diglett and people worked together to finish digging this tunnel several years ago.",
      "island": "Akala Island",
      "connections": [
        {
          "region": "Alola",
          "location": "Route 9",
          "direction": "a"
        },
        {
          "region": "Alola",
          "location": "Heahea City",
          "direction": "a"
        },
        {
          "region": "Alola",
          "location": "Konikoni City",
          "direction": "a"
        }
      ]
    },
    {
      "name": "Royal Avenue",
      "description": "A major street that has developed so much thanks to the Battle Royal Dome being on it, making it look like a city street.",
      "island": "Akala Island",
      "connections": [
        {
          "region": "Alola",
          "location": "Route 7",
          "direction": "a"
        },
        {
          "region": "Alola",
          "location": "Route 6",
          "direction": "a"
        }
      ]
    },
    {
      "name": "Wela Volcano Park",
      "description": "A mountain with steep paths and waste lands. There is a trial site on top.",
      "island": "Akala Island",
      "connections": [
        {
          "region": "Alola",
          "location": "Route 7",
          "direction": "a"
        }
      ]
    },
    {
      "name": "Lush Jungle",
      "description": "A heavily wooded tropical rain forest. It's famous for producing ingredients for delicious meals.",
      "island": "Akala Island",
      "connections": [
        {
          "region": "Alola",
          "location": "Route 5",
          "direction": "a"
        }
      ]
    },
    {
      "name": "Memorial Hill",
      "description": "A place where the memories of people and Pokémon linger. Many people come from other islands to visit this graveyard.",
      "island": "Akala Island",
      "connections": [
        {
          "region": "Alola",
          "location": "Route 9",
          "direction": "a"
        },
        {
          "region": "Alola",
          "location": "Akala Outskirts",
          "direction": "a"
        }
      ]
    },
    {
      "name": "Akala Outskirts",
      "description": "A grassy stretch along Akala's southern-most coast. It leads from Memorial Hill to the Ruins of Life.",
      "island": "Akala Island",
      "connections": [
        {
          "region": "Alola",
          "location": "Memorial Hill",
          "direction": "a"
        },
        {
          "region": "Alola",
          "location": "Ruins of Life",
          "direction": "a"
        }
      ]
    },
    {
      "name": "Ruins of Life",
      "description": "The ruins that enshrine Tapu Lele, one of the land spirits. It is said that life is born here.",
      "island": "Akala Island",
      "connections": [
        {
          "region": "Alola",
          "location": "Akala Outskirts",
          "direction": "a"
        }
      ]
    },
    {
      "name": "Hano Grand Resort",
      "description": "The biggest of all the resorts in the Alola region. The hotel is fully booked a year in advance. Everybody talks about this five-star hotel.",
      "island": "Akala Island",
      "connections": [
        {
          "region": "Alola",
          "location": "Heahea City",
          "direction": "a"
        },
        {
          "region": "Alola",
          "location": "Hano Beach",
          "direction": "a"
        }
      ]
    },
    {
      "name": "Hano Beach",
      "description": "The beach near Hano Grand Hotel at the Hano Grand Resort. Pyukumuku-chucking is a popular part-time job to do here.",
      "island": "Akala Island",
      "connections": [
        {
          "region": "Alola",
          "location": "Hano Grand Resort",
          "direction": "a"
        }
      ]
    },
    {
      "name": "Malie Garden",
      "description": "A well-manicured garden located in the middle of Malie City. The large lake within it seems to resemble something...",
      "island": "Ula'ula Island",
      "connections": [
        {
          "region": "Alola",
          "location": "Malie City",
          "direction": "a"
        }
      ]
    },
    {
      "name": "Mount Hokulani",
      "description": "A mountain suitable for observing the stars. There is an observatory on top.",
      "island": "Ula'ula Island",
      "connections": [
        {
          "region": "Alola",
          "location": "Route 10",
          "direction": "a"
        },
        {
          "region": "Alola",
          "location": "Hokulani Observatory",
          "direction": "a"
        }
      ]
    },
    {
      "name": "Hokulani Observatory",
      "description": "A research facility for observing and studying various phenomena in space.",
      "island": "Ula'ula Island",
      "connections": [
        {
          "region": "Alola",
          "location": "Route 10",
          "direction": "a"
        }
      ]
    },
    {
      "name": "Blush Mountain",
      "description": "The mountain where the Geothermal Power Plant is situated. Its output covers almost all of Ula'ula Island's electric needs.",
      "island": "Ula'ula Island",
      "connections": [
        {
          "region": "Alola",
          "location": "Route 12",
          "direction": "a"
        }
      ]
    },
    {
      "name": "Ula'ula Beach",
      "description": "A beach that spreads on the southern coast of Ula'ula Island. A very popular and busy place for Mantine Surf.",
      "island": "Ula'ula Island",
      "connections": [
        {
          "region": "Alola",
          "location": "Route 12",
          "direction": "a"
        }
      ]
    },
    {
      "name": "Aether House",
      "description": "The Aether Foundation's largest base on Alola's main islands, with one of its purposes being an orphanage for human children and Pokémon. Its headmaster is an Oranguru.",
      "island": "Ula'ula Island",
      "connections": [
        {
          "region": "Alola",
          "location": "Route 15",
          "direction": "a"
        }
      ]
    },
    {
      "name": "Thrifty Megamart (Abandoned Site)",
      "description": "The original site of the first Thrifty Megamart store. It is said to have been destroyed by the island's tapu.",
      "island": "Ula'ula Island",
      "connections": [
        {
          "region": "Alola",
          "location": "Route 14",
          "direction": "a"
        }
      ]
    },
    {
      "name": "Haina Desert",
      "description": "A scorching-hot desert beyond Route 13. Trainers often get lost here in this broiling labyrinth.",
      "island": "Ula'ula Island",
      "connections": [
        {
          "region": "Alola",
          "location": "Route 13",
          "direction": "a"
        },
        {
          "region": "Alola",
          "location": "Ruins of Abundance",
          "direction": "a"
        }
      ]
    },
    {
      "name": "Ruins of Abundance",
      "description": "The ruins that enshrine Tapu Bulu, one of the land spirits. It is said that life grows here.",
      "island": "Ula'ula Island",
      "connections": [
        {
          "region": "Alola",
          "location": "Haina Desert",
          "direction": "a"
        }
      ]
    },
    {
      "name": "Ula'ula Meadow",
      "description": "A place where red flowers bloom in abundance. You can gather the nectar Oricorio loves to feed on here.",
      "island": "Ula'ula Island",
      "connections": [
        {
          "region": "Alola",
          "location": "Route 16",
          "direction": "a"
        },
        {
          "region": "Alola",
          "location": "Route 17",
          "direction": "a"
        },
        {
          "region": "Alola",
          "location": "Lake of the Moone",
          "direction": "a"
        },
        {
          "region": "Alola",
          "location": "Lake of the Sunne",
          "direction": "a"
        }
      ]
    },
    {
      "name": "Lake of the Moone",
      "description": "A place that seems to have some connection to the Alola's Legendary Pokémon. The lake forms a perfect circle.",
      "island": "Ula'ula Island",
      "connections": [
        {
          "region": "Alola",
          "location": "Ula'ula Meadow",
          "direction": "a"
        }
      ]
    },
    {
      "name": "Lake of the Sunne",
      "description": "A place that seems to have some connection to the Alola's Legendary Pokémon. The lake forms a perfect circle.",
      "island": "Ula'ula Island",
      "connections": [
        {
          "region": "Alola",
          "location": "Ula'ula Meadow",
          "direction": "a"
        }
      ]
    },
    {
      "name": "Shady House",
      "description": "A mansion abandoned by a certain rich citizen. People sometimes call it the \"Shady Chateau,\" too.",
      "island": "Ula'ula Island",
      "connections": [
        {
          "region": "Alola",
          "location": "Po Town",
          "direction": "a"
        }
      ]
    },
    {
      "name": "Poni Wilds",
      "description": "The entrance to Poni Island. It connects to Seafolk Village.",
      "island": "Poni Island",
      "connections": [
        {
          "region": "Alola",
          "location": "Seafolk Village",
          "direction": "a"
        }
      ]
    },
    {
      "name": "Ancient Poni Path",
      "description": "An old path that leads to Vast Poni Canyon. Some people and Pokémon still try to live in the ruins here, but not many.",
      "island": "Poni Island",
      "connections": [
        {
          "region": "Alola",
          "location": "Poni Wilds",
          "direction": "a"
        },
        {
          "region": "Alola",
          "location": "Poni Breaker Coast",
          "direction": "a"
        },
        {
          "region": "Alola",
          "location": "Vast Poni Canyon",
          "direction": "a"
        },
        {
          "region": "Alola",
          "location": "Poni Grove",
          "direction": "a"
        }
      ]
    },
    {
      "name": "Poni Breaker Coast",
      "description": "The southern coast of Poni Island, where rough waves pound mercilessly upon the shore.",
      "island": "Poni Island",
      "connections": [
        {
          "region": "Alola",
          "location": "Ancient Poni Path",
          "direction": "a"
        },
        {
          "region": "Alola",
          "location": "Ruins of Hope",
          "direction": "a"
        }
      ]
    },
    {
      "name": "Ruins of Hope",
      "description": "The ruins that enshrine Tapu Fini, one of the land spirits. It is said that life ends its journey here.",
      "island": "Poni Island",
      "connections": [
        {
          "region": "Alola",
          "location": "Poni Breaker Coast",
          "direction": "a"
        }
      ]
    },
    {
      "name": "Exeggutor Island",
      "description": "It's a paradise for Exeggutor! This island is designated as a special preserve.",
      "island": "Poni Island",
      "connections": [
        {
          "region": "Alola",
          "location": "Seafolk Village",
          "direction": "a"
        }
      ]
    },
    {
      "name": "Vast Poni Canyon",
      "description": "The most challenging path on Poni Island. The ups and downs of this canyon are beyond any other.",
      "island": "Poni Island",
      "connections": [
        {
          "region": "Alola",
          "location": "Ancient Poni Path",
          "direction": "a"
        },
        {
          "region": "Alola",
          "location": "Altar of the Sunne",
          "direction": "a"
        },
        {
          "region": "Alola",
          "location": "Altar of the Moone",
          "direction": "a"
        }
      ]
    },
    {
      "name": "Altar of the Sunne",
      "description": "An altar that is said to be closely associated with the Legendary Pokémon depicted in the local folklore.",
      "island": "Poni Island",
      "connections": [
        {
          "region": "Alola",
          "location": "Vast Poni Canyon",
          "direction": "a"
        }
      ]
    },
    {
      "name": "Altar of the Moone",
      "description": "An altar that is said to be closely associated with the Legendary Pokémon depicted in the local folklore.",
      "island": "Poni Island",
      "connections": [
        {
          "region": "Alola",
          "location": "Vast Poni Canyon",
          "direction": "a"
        }
      ]
    },
    {
      "name": "Mount Lanakila",
      "description": "The roughest and coldest mountain in the Alola region. A large-scale construction project has been taken up here.",
      "island": "Ula'ula Island",
      "connections": [
        {
          "region": "Alola",
          "location": "Tapu Village",
          "direction": "a"
        },
        {
          "region": "Alola",
          "location": "Pokémon League",
          "direction": "a"
        }
      ]
    },
    {
      "name": "Ruins of Conflict",
      "description": "The ruins that enshrine Tapu Koko, one of the land spirits. It is said that life is tested here.",
      "island": "Melemele Island",
      "connections": [
        {
          "region": "Alola",
          "location": "Mahalo Trail",
          "direction": "a"
        }
      ]
    },
    {
      "name": "Poni Grove",
      "description": "A natural path that winds among the many trees. It leads to the eastern side of Poni Island.",
      "island": "Poni Island",
      "connections": [
        {
          "region": "Alola",
          "location": "Ancient Poni Path",
          "direction": "a"
        },
        {
          "region": "Alola",
          "location": "Poni Plains",
          "direction": "a"
        }
      ]
    },
    {
      "name": "Poni Plains",
      "description": "The plains that lead to the northern part of Poni island. There is also a path connecting to Poni Meadow from here.",
      "island": "Poni Island",
      "connections": [
        {
          "region": "Alola",
          "location": "Poni Grove",
          "direction": "a"
        },
        {
          "region": "Alola",
          "location": "Poni Meadow",
          "direction": "a"
        },
        {
          "region": "Alola",
          "location": "Plains Grotto",
          "direction": "a"
        },
        {
          "region": "Alola",
          "location": "Poni Coast",
          "direction": "a"
        }
      ]
    },
    {
      "name": "Poni Meadow",
      "description": "A place where purple flowers bloom in abundance. You can gather the nectar Oricorio loves to feed on here.",
      "island": "Poni Island",
      "connections": [
        {
          "region": "Alola",
          "location": "Poni Plains",
          "direction": "a"
        },
        {
          "region": "Alola",
          "location": "Resolution Cave",
          "direction": "a"
        }
      ]
    },
    {
      "name": "Poni Meadow",
      "description": "A cave that leads deep, deep down under the ground. How it got the name \"resolution\" is not known.",
      "island": "Poni Island",
      "connections": [
        {
          "region": "Alola",
          "location": "Poni Plains",
          "direction": "a"
        }
      ]
    },
    {
      "name": "Poni Coast",
      "description": "The north-eastern coast of Poni Island, where the clarity of the water makes it a popular view spot.",
      "island": "Poni Island",
      "connections": [
        {
          "region": "Alola",
          "location": "Poni Plains",
          "direction": "a"
        },
        {
          "region": "Alola",
          "location": "Poni Gauntlet",
          "direction": "a"
        }
      ]
    },
    {
      "name": "Poni Gauntlet",
      "description": "A difficult path that leads to the Battle Tree. It's full of tough Trainers.",
      "island": "Poni Island",
      "connections": [
        {
          "region": "Alola",
          "location": "Poni Coast",
          "direction": "a"
        },
        {
          "region": "Alola",
          "location": "Battle Tree",
          "direction": "a"
        }
      ]
    },
    {
      "name": "Battle Tree",
      "description": "The sacred battle grounds for the toughest Trainers of the Alola region.",
      "island": "Poni Island",
      "connections": [
        {
          "region": "Alola",
          "location": "Poni Gauntlet",
          "direction": "a"
        }
      ]
    },
    {
      "name": "Big Wave Beach",
      "description": "A beach with huge waves. It's located near a motel. It's one of the Mantine Surf Spots.",
      "island": "Melemele Island",
      "connections": [
        {
          "region": "Alola",
          "location": "Route 2",
          "direction": "a"
        },
        {
          "region": "Alola",
          "location": "Sandy Cave",
          "direction": "a"
        }
      ]
    },
    {
      "name": "Sandy Cave",
      "description": "The vast sea spreads, and various Pokémon live among rocks.",
      "island": "Melemele Island",
      "connections": [
        {
          "region": "Alola",
          "location": "Big Wave Beach",
          "direction": "a"
        }
      ]
    },
    {
      "name": "Heahea Beach",
      "description": "A bustling beach connecting to Heahea City. It's one of the Mantine Surf Spots.",
      "island": "Akala Island",
      "connections": [
        {
          "region": "Alola",
          "location": "Heahea City",
          "direction": "a"
        }
      ]
    },
    {
      "name": "Pikachu Valley",
      "description": "Pikachu Valley is a small enclosure on Akala Island where wild Pikachu gather to interact with others.",
      "island": "Akala Island",
      "connections": [
        {
          "region": "Alola",
          "location": "Route 4",
          "direction": "a"
        }
      ]
    },
    {
      "name": "Dividing Peak Tunnel",
      "description": "A tunnel that connects Route 7 to Route 8.",
      "island": "Akala Island",
      "connections": [
        {
          "region": "Alola",
          "location": "Route 7",
          "direction": "a"
        },
        {
          "region": "Alola",
          "location": "Route 8",
          "direction": "a"
        }
      ]
    },
    {
      "name": "Poni Beach",
      "description": "A beach on Poni Island with an abundance of nature. It's one of the Mantine Surf Spots.",
      "island": "Poni Island",
      "connections": [
        {
          "region": "Alola",
          "location": "Poni Wilds",
          "direction": "a"
        }
      ]
    },
    {
      "name": "Plains Grotto",
      "description": "Plains Grotto is a circular cave with several rock formations and a pedestal in the center.",
      "island": "Poni Island",
      "connections": [
        {
          "region": "Alola",
          "location": "Poni Plains",
          "direction": "a"
        }
      ]
    },
    {
      "name": "Aether Paradise",
      "description": "A VLFS or a \"very large floating structure.\" This is where the Aether Foundation's research facilities are.",
      "connections": [
        {
          "region": "Alola",
          "location": "Hau'oli City",
          "direction": "a"
        },
        {
          "region": "Alola",
          "location": "Heahea City",
          "direction": "a"
        },
        {
          "region": "Alola",
          "location": "Malie City",
          "direction": "a"
        }
      ]
    },
    {
      "name": "Ultra Space",
      "description": "An interdimensional spatial realm filled with crystalline meteoroids. It links to a number of different universes and dimensions through Ultra Wormholes.",
      "connections": [
        {
          "region": "Alola",
          "location": "Ultra Deep Sea",
          "direction": "a"
        },
        {
          "region": "Alola",
          "location": "Ultra Megalopolis",
          "direction": "a"
        },
        {
          "region": "Alola",
          "location": "Ultra Jungle",
          "direction": "a"
        },
        {
          "region": "Alola",
          "location": "Ultra Desert",
          "direction": "a"
        },
        {
          "region": "Alola",
          "location": "Ultra Plant",
          "direction": "a"
        },
        {
          "region": "Alola",
          "location": "Ultra Forest",
          "direction": "a"
        },
        {
          "region": "Alola",
          "location": "Ultra Crater",
          "direction": "a"
        },
        {
          "region": "Alola",
          "location": "Ultra Ruin",
          "direction": "a"
        }
      ]
    },
    {
      "name": "Ultra Deep Sea",
      "description": "A sea located deep in the unknowns of Ultra Space.",
      "connections": [
        {
          "region": "Alola",
          "location": "Ultra Space",
          "direction": "a"
        }
      ]
    },
    {
      "name": "Ultra Megalopolis",
      "description": "An alien city located far in the unknowns of Ultra Space. Necrozma prevents any natural light from reaching this world.",
      "connections": [
        {
          "region": "Alola",
          "location": "Ultra Space",
          "direction": "a"
        },
        {
          "region": "Alola",
          "location": "Megalo Tower",
          "direction": "a"
        }
      ]
    },
    {
      "name": "Megalo Tower",
      "description": "Located in the heart of Ultra Megalopolis, this tower provides artifical light to the city.",
      "connections": [
        {
          "region": "Alola",
          "location": "Ultra Megalopolis",
          "direction": "a"
        }
      ]
    },
    {
      "name": "Ultra Jungle",
      "description": "A junle located deep in the unknowns of Ultra Space.",
      "connections": [
        {
          "region": "Alola",
          "location": "Ultra Space",
          "direction": "a"
        }
      ]
    },
    {
      "name": "Ultra Desert",
      "description": "A desert located deep in the unknowns of Ultra Space.",
      "connections": [
        {
          "region": "Alola",
          "location": "Ultra Space",
          "direction": "a"
        }
      ]
    },
    {
      "name": "Ultra Plant",
      "description": "An alien power plant located deep in the unknowns of Ultra Space.",
      "connections": [
        {
          "region": "Alola",
          "location": "Ultra Space",
          "direction": "a"
        }
      ]
    },
    {
      "name": "Ultra Forest",
      "description": "A forest located deep in the unknowns of Ultra Space.",
      "connections": [
        {
          "region": "Alola",
          "location": "Ultra Space",
          "direction": "a"
        }
      ]
    },
    {
      "name": "Ultra Crater",
      "description": "A crater located deep in the unknowns of Ultra Space.",
      "connections": [
        {
          "region": "Alola",
          "location": "Ultra Space",
          "direction": "a"
        }
      ]
    },
    {
      "name": "Ultra Ruin",
      "description": "An alien ruin located deep in the unknowns of Ultra Space.",
      "connections": [
        {
          "region": "Alola",
          "location": "Ultra Space",
          "direction": "a"
        }
      ]
    }
  ]
}