{
  "name": "Hoenn",
  "starterPokemon": [
    "Treecko",
    "Torchic",
    "Mudkip"
  ],
  "startingLocation": "Littleroot Town",
  "professor": "Birch",
  "locations": [
    {
      "name": "Littleroot Town",
      "description": "Basking amid vibrant nature, this simple town is not shaded with any one hue.",
      "connections": [
        {
          "region": "Hoenn",
          "location": "Route 101",
          "direction": "n"
        }
      ]
    },
    {
      "name": "Oldale Town",
      "description": "A town where the contrast between colorful flowers and deep, verdant forests is most beautiful.",
      "connections": [
        {
          "region": "Hoenn",
          "location": "Route 103",
          "direction": "n"
        },
        {
          "region": "Hoenn",
          "location": "Route 102",
          "direction": "w"
        },
        {
          "region": "Hoenn",
          "location": "Route 101",
          "direction": "s"
        }
      ]
    },
    {
      "name": "Petalburg City",
      "description": "A whiff of salt is always in the air in this city, which is skirted by the ocean shore.",
      "connections": [
        {
          "region": "Hoenn",
          "location": "Route 102",
          "direction": "e"
        },
        {
          "region": "Hoenn",
          "location": "Route 104",
          "direction": "w"
        }
      ]
    },
    {
      "name": "Rustboro City",
      "description": "This city is the main hub of industry in the Hoenn region, with the Devon Corporation as its beating heart.",
      "connections": [
        {
          "region": "Hoenn",
          "location": "Route 115",
          "direction": "n"
        },
        {
          "region": "Hoenn",
          "location": "Route 116",
          "direction": "e"
        },
        {
          "region": "Hoenn",
          "location": "Route 104",
          "direction": "s"
        }
      ]
    },
    {
      "name": "Dewford Town",
      "description": "New trends are always the rage among the inhabitants of this small island town.",
      "connections": [
        {
          "region": "Hoenn",
          "location": "Route 106",
          "direction": "n"
        },
        {
          "region": "Hoenn",
          "location": "Route 107",
          "direction": "e"
        },
        {
          "region": "Hoenn",
          "location": "Route 104",
          "direction": "f"
        },
        {
          "region": "Hoenn",
          "location": "Route 109",
          "direction": "f"
        }
      ]
    },
    {
      "name": "Slateport City",
      "description": "People from many different regions gather and mingle in this bustling port city.",
      "connections": [
        {
          "region": "Hoenn",
          "location": "Route 110",
          "direction": "n"
        },
        {
          "region": "Hoenn",
          "location": "Route 134",
          "direction": "e"
        },
        {
          "region": "Hoenn",
          "location": "Route 109",
          "direction": "s"
        },
        {
          "region": "Hoenn",
          "location": "Oceanic Museum",
          "direction": "a"
        },
        {
          "region": "Hoenn",
          "location": "S.S. Tidal",
          "direction": "f"
        }
      ]
    },
    {
      "name": "Mauville City",
      "description": "This large city is located in the heart of the Hoenn region, at the crossroads of its nostalgic past and new technology.",
      "connections": [
        {
          "region": "Hoenn",
          "location": "Route 111",
          "direction": "n"
        },
        {
          "region": "Hoenn",
          "location": "Route 118",
          "direction": "e"
        },
        {
          "region": "Hoenn",
          "location": "Route 117",
          "direction": "w"
        },
        {
          "region": "Hoenn",
          "location": "Route 110",
          "direction": "s"
        }
      ]
    },
    {
      "name": "Verdanturf Town",
      "description": "Thanks to the prevailing wind pattern, this town is always kept clear of falling volcanic ash.",
      "connections": [
        {
          "region": "Hoenn",
          "location": "Route 117",
          "direction": "e"
        },
        {
          "region": "Hoenn",
          "location": "Rusturf Tunnel",
          "direction": "a"
        }
      ]
    },
    {
      "name": "Fallarbor Town",
      "description": "A town formed by scholars who gather to research meteorites.",
      "connections": [
        {
          "region": "Hoenn",
          "location": "Route 113",
          "direction": "e"
        },
        {
          "region": "Hoenn",
          "location": "Route 114",
          "direction": "w"
        }
      ]
    },
    {
      "name": "Lavaridge Town",
      "description": "A popular spot in the Hoenn region, thanks to its hot springs, said to cure any ailment.",
      "connections": [
        {
          "region": "Hoenn",
          "location": "Route 112",
          "direction": "e"
        }
      ]
    },
    {
      "name": "Fortree City",
      "description": "The people and the Pokémon of this city follow nature's cues to rise each morning and end each day.",
      "connections": [
        {
          "region": "Hoenn",
          "location": "Route 120",
          "direction": "e"
        },
        {
          "region": "Hoenn",
          "location": "Route 119",
          "direction": "w"
        }
      ]
    },
    {
      "name": "Lilycove City",
      "description": "This tourist destination is undergoing a revival, thanks to the popularity of its Pokémon Contest Spectaculars.",
      "connections": [
        {
          "region": "Hoenn",
          "location": "Route 124",
          "direction": "e"
        },
        {
          "region": "Hoenn",
          "location": "Route 121",
          "direction": "w"
        },
        {
          "region": "Hoenn",
          "location": "Lilycove Museum",
          "direction": "a"
        },
        {
          "region": "Hoenn",
          "location": "Team Aqua Hideout",
          "direction": "a"
        },
        {
          "region": "Hoenn",
          "location": "S.S. Tidal",
          "direction": "f"
        }
      ]
    },
    {
      "name": "Mossdeep City",
      "description": "Research is underway day and night in this city, all in the hope of understanding the distant reaches of space.",
      "connections": [
        {
          "region": "Hoenn",
          "location": "Route 125",
          "direction": "n"
        },
        {
          "region": "Hoenn",
          "location": "Route 124",
          "direction": "w"
        },
        {
          "region": "Hoenn",
          "location": "Route 127",
          "direction": "s"
        },
        {
          "region": "Hoenn",
          "location": "Mossdeep Space Center",
          "direction": "a"
        }
      ]
    },
    {
      "name": "Sootopolis City",
      "description": "This city, which rises from the crater of a great meteoroid crash, can only be reached through the sea or from the sky.",
      "connections": [
        {
          "region": "Hoenn",
          "location": "Route 126",
          "direction": "a"
        },
        {
          "region": "Hoenn",
          "location": "Cave of Origin",
          "direction": "a"
        }
      ]
    },
    {
      "name": "Pacifidlog Town",
      "description": "This town first came into being as a floating storehouse used by people living on the ocean's surface.",
      "connections": [
        {
          "region": "Hoenn",
          "location": "Route 131",
          "direction": "e"
        },
        {
          "region": "Hoenn",
          "location": "Route 132",
          "direction": "w"
        }
      ]
    },
    {
      "name": "Ever Grande City",
      "description": "This city is blanketed in a profusion of colorful blooms. It plays host to the grand Pokémon League.",
      "connections": [
        {
          "region": "Hoenn",
          "location": "Route 128",
          "direction": "w"
        },
        {
          "region": "Hoenn",
          "location": "Victory Road",
          "direction": "a"
        }
      ]
    },
    {
      "name": "Battle Frontier",
      "description": "An island south of Route 130 that features several arenas where powerful Trainers can battle each other. The Battle Frontier is composed of seven distinct battle facilities, each lead by a Frontier Brain who may be challenged after certain winning streaks have been made through their respective facility.",
      "connections": [
        {
          "region": "Hoenn",
          "location": "S.S. Tidal",
          "direction": "f"
        },
        {
          "region": "Hoenn",
          "location": "Artisan Cave",
          "direction": "a"
        }
      ]
    },
    {
      "name": "Battle Resort",
      "description": "This grand resort was built with the aim of allowing Trainers to enjoy every kind of Pokémon battle.",
      "connections": [
        {
          "region": "Hoenn",
          "location": "S.S. Tidal",
          "direction": "f"
        }
      ]
    },
    {
      "name": "Route 101",
      "description": "This grassy path running between Littleroot Town and Oldale Town is perfect for doing fieldwork.",
      "connections": [
        {
          "region": "Hoenn",
          "location": "Oldale Town",
          "direction": "n"
        },
        {
          "region": "Hoenn",
          "location": "Littleroot Town",
          "direction": "s"
        }
      ]
    },
    {
      "name": "Route 102",
      "description": "Many Trainers gather on this route in the hope of encountering Pokémon in the wild.",
      "connections": [
        {
          "region": "Hoenn",
          "location": "Oldale Town",
          "direction": "e"
        },
        {
          "region": "Hoenn",
          "location": "Petalburg City",
          "direction": "w"
        }
      ]
    },
    {
      "name": "Route 103",
      "description": "On weekends and holidays, fishing enthusiasts flock to every section of coastline on this seaside route.",
      "connections": [
        {
          "region": "Hoenn",
          "location": "Route 110",
          "direction": "e"
        },
        {
          "region": "Hoenn",
          "location": "Oldale Town",
          "direction": "s"
        },
        {
          "region": "Hoenn",
          "location": "Altering Cave",
          "direction": "a"
        }
      ]
    },
    {
      "name": "Route 104",
      "description": "This path, rich with water and colorful plant life, runs north and south of Petalburg Woods.",
      "connections": [
        {
          "region": "Hoenn",
          "location": "Rustboro City",
          "direction": "n"
        },
        {
          "region": "Hoenn",
          "location": "Petalburg City",
          "direction": "e"
        },
        {
          "region": "Hoenn",
          "location": "Route 105",
          "direction": "s"
        },
        {
          "region": "Hoenn",
          "location": "Dewford Town",
          "direction": "f"
        },
        {
          "region": "Hoenn",
          "location": "Route 109",
          "direction": "f"
        },
        {
          "region": "Hoenn",
          "location": "Petalburg Woods",
          "direction": "a"
        }
      ]
    },
    {
      "name": "Route 105",
      "description": "This water route boasts gentle currents, which makes it safe for even poor swimmers to bask in.",
      "connections": [
        {
          "region": "Hoenn",
          "location": "Route 104",
          "direction": "n"
        },
        {
          "region": "Hoenn",
          "location": "Island Cave",
          "direction": "w"
        },
        {
          "region": "Hoenn",
          "location": "Route 106",
          "direction": "s"
        },
        {
          "region": "Hoenn",
          "location": "Marine Cave",
          "direction": "a"
        }
      ]
    },
    {
      "name": "Route 106",
      "description": "This is the site of serious battles between Fishermen of the seaside area and the wild Pokémon of the seas.",
      "connections": [
        {
          "region": "Hoenn",
          "location": "Route 105",
          "direction": "n"
        },
        {
          "region": "Hoenn",
          "location": "Dewford Town",
          "direction": "s"
        },
        {
          "region": "Hoenn",
          "location": "Granite Cave",
          "direction": "a"
        }
      ]
    },
    {
      "name": "Route 107",
      "description": "The local children of Dewford Town practice long-distance swimming in the waters of this aquatic route.",
      "connections": [
        {
          "region": "Hoenn",
          "location": "Route 108",
          "direction": "e"
        },
        {
          "region": "Hoenn",
          "location": "Dewford Town",
          "direction": "w"
        }
      ]
    },
    {
      "name": "Route 108",
      "description": "People come swimming from as far away as the Kalos region to see the site of Sea Mauville.",
      "connections": [
        {
          "region": "Hoenn",
          "location": "Route 109",
          "direction": "e"
        },
        {
          "region": "Hoenn",
          "location": "Route 107",
          "direction": "w"
        },
        {
          "region": "Hoenn",
          "location": "Sea Mauville",
          "direction": "a"
        }
      ]
    },
    {
      "name": "Route 109",
      "description": "People and Pokémon alike enjoy ocean swims in this water route.",
      "connections": [
        {
          "region": "Hoenn",
          "location": "Slateport City",
          "direction": "n"
        },
        {
          "region": "Hoenn",
          "location": "Route 108",
          "direction": "w"
        },
        {
          "region": "Hoenn",
          "location": "Route 104",
          "direction": "f"
        },
        {
          "region": "Hoenn",
          "location": "Dewford Town",
          "direction": "f"
        }
      ]
    },
    {
      "name": "Route 110",
      "description": "A timeworn path where nature remains untouched. Above it on this route stretches the huge Cycling Road.",
      "connections": [
        {
          "region": "Hoenn",
          "location": "Mauville City",
          "direction": "n"
        },
        {
          "region": "Hoenn",
          "location": "Route 103",
          "direction": "w"
        },
        {
          "region": "Hoenn",
          "location": "Slateport City",
          "direction": "s"
        },
        {
          "region": "Hoenn",
          "location": "Seaside Cycling Road",
          "direction": "a"
        },
        {
          "region": "Hoenn",
          "location": "Trick House",
          "direction": "a"
        },
        {
          "region": "Hoenn",
          "location": "New Mauville",
          "direction": "a"
        }
      ]
    },
    {
      "name": "Route 111",
      "description": "This expansive route includes a desert where sandstorms rage unceasingly and a mountain pass.",
      "connections": [
        {
          "region": "Hoenn",
          "location": "Route 112",
          "direction": "w"
        },
        {
          "region": "Hoenn",
          "location": "Route 113",
          "direction": "w"
        },
        {
          "region": "Hoenn",
          "location": "Mauville City",
          "direction": "s"
        },
        {
          "region": "Hoenn",
          "location": "Desert Ruins",
          "direction": "a"
        },
        {
          "region": "Hoenn",
          "location": "Mirage Tower",
          "direction": "a"
        }
      ]
    },
    {
      "name": "Route 112",
      "description": "This route is popular among Trainers because it offers the chance to stroll while gazing up at Mt. Chimney.",
      "connections": [
        {
          "region": "Hoenn",
          "location": "Route 111",
          "direction": "e"
        },
        {
          "region": "Hoenn",
          "location": "Lavaridge Town",
          "direction": "w"
        },
        {
          "region": "Hoenn",
          "location": "Mt. Chimney",
          "direction": "a"
        },
        {
          "region": "Hoenn",
          "location": "Jagged Pass",
          "direction": "a"
        },
        {
          "region": "Hoenn",
          "location": "Fiery Path",
          "direction": "a"
        }
      ]
    },
    {
      "name": "Route 113",
      "description": "The tall grass on this route is painted a dusty gray by the volcanic ash that pours from Mt. Chimney.",
      "connections": [
        {
          "region": "Hoenn",
          "location": "Route 111",
          "direction": "e"
        },
        {
          "region": "Hoenn",
          "location": "Fallarbor Town",
          "direction": "w"
        }
      ]
    },
    {
      "name": "Route 114",
      "description": "This mountain path to Meteor Falls is so long and arduous that even Hikers have difficulty tackling it.",
      "connections": [
        {
          "region": "Hoenn",
          "location": "Fallarbor Town",
          "direction": "e"
        },
        {
          "region": "Hoenn",
          "location": "Desert Underpass",
          "direction": "a"
        },
        {
          "region": "Hoenn",
          "location": "Meteor Falls",
          "direction": "a"
        },
        {
          "region": "Hoenn",
          "location": "Terra Cave",
          "direction": "a"
        }
      ]
    },
    {
      "name": "Route 115",
      "description": "This trail to Rustboro City was broken by people who lived at Meteor Falls long ago.",
      "connections": [
        {
          "region": "Hoenn",
          "location": "Rustboro City",
          "direction": "s"
        },
        {
          "region": "Hoenn",
          "location": "Meteor Falls",
          "direction": "a"
        },
        {
          "region": "Hoenn",
          "location": "Terra Cave",
          "direction": "a"
        }
      ]
    },
    {
      "name": "Route 116",
      "description": "A path that many workers take on their daily commute between Rustboro City and Rusturf Tunnel.",
      "connections": [
        {
          "region": "Hoenn",
          "location": "Rustboro City",
          "direction": "w"
        },
        {
          "region": "Hoenn",
          "location": "Rusturf Tunnel",
          "direction": "a"
        },
        {
          "region": "Hoenn",
          "location": "Terra Cave",
          "direction": "a"
        }
      ]
    },
    {
      "name": "Route 117",
      "description": "A path where many Trainers gather to raise their Pokémon and train them for battle.",
      "connections": [
        {
          "region": "Hoenn",
          "location": "Mauville City",
          "direction": "e"
        },
        {
          "region": "Hoenn",
          "location": "Verdanturf Town",
          "direction": "w"
        }
      ]
    },
    {
      "name": "Route 118",
      "description": "This seaside route brings together the east and west sides of the Hoenn region.",
      "connections": [
        {
          "region": "Hoenn",
          "location": "Route 119",
          "direction": "n"
        },
        {
          "region": "Hoenn",
          "location": "Route 123",
          "direction": "e"
        },
        {
          "region": "Hoenn",
          "location": "Mauville City",
          "direction": "w"
        },
        {
          "region": "Hoenn",
          "location": "Terra Cave",
          "direction": "a"
        }
      ]
    },
    {
      "name": "Route 119",
      "description": "If you are not prepared for it, the harsh conditions of this tropical rain forest will defeat you in less than five minutes.",
      "connections": [
        {
          "region": "Hoenn",
          "location": "Fortree City",
          "direction": "e"
        },
        {
          "region": "Hoenn",
          "location": "Route 118",
          "direction": "s"
        },
        {
          "region": "Hoenn",
          "location": "Weather Institute",
          "direction": "a"
        }
      ]
    },
    {
      "name": "Route 120",
      "description": "Pokémon that can camouflage themselves hide in the rich wilds along this route.",
      "connections": [
        {
          "region": "Hoenn",
          "location": "Route 121",
          "direction": "e"
        },
        {
          "region": "Hoenn",
          "location": "Fortree City",
          "direction": "w"
        },
        {
          "region": "Hoenn",
          "location": "Scorched Slab",
          "direction": "a"
        },
        {
          "region": "Hoenn",
          "location": "Ancient Tomb",
          "direction": "a"
        }
      ]
    },
    {
      "name": "Route 121",
      "description": "This road leads to both the Safari Zone and Mt. Pyre. Many people set out along this route from Lilycove City.",
      "connections": [
        {
          "region": "Hoenn",
          "location": "Lilycove City",
          "direction": "e"
        },
        {
          "region": "Hoenn",
          "location": "Route 120",
          "direction": "w"
        },
        {
          "region": "Hoenn",
          "location": "Route 122",
          "direction": "s"
        },
        {
          "region": "Hoenn",
          "location": "Safari Zone",
          "direction": "a"
        }
      ]
    },
    {
      "name": "Route 122",
      "description": "People make their way to Mt. Pyre over this water route, reliving many precious memories as they traverse it.",
      "connections": [
        {
          "region": "Hoenn",
          "location": "Route 121",
          "direction": "n"
        },
        {
          "region": "Hoenn",
          "location": "Route 123",
          "direction": "s"
        },
        {
          "region": "Hoenn",
          "location": "Mt. Pyre",
          "direction": "a"
        }
      ]
    },
    {
      "name": "Route 123",
      "description": "This route offers a convenient path back to Mauville City from Mt. Pyre, but be aware that it is a one-way road.",
      "connections": [
        {
          "region": "Hoenn",
          "location": "Route 122",
          "direction": "n"
        },
        {
          "region": "Hoenn",
          "location": "Route 118",
          "direction": "w"
        }
      ]
    },
    {
      "name": "Route 124",
      "description": "This great stretch of ocean connects the cities of Lilycove, Mossdeep, and Sootopolis.",
      "connections": [
        {
          "region": "Hoenn",
          "location": "Mossdeep City",
          "direction": "e"
        },
        {
          "region": "Hoenn",
          "location": "Lilycove City",
          "direction": "w"
        },
        {
          "region": "Hoenn",
          "location": "Route 126",
          "direction": "s"
        }
      ]
    },
    {
      "name": "Route 125",
      "description": "This route offers a convenient path back to Mauville City from Mt. Pyre, but be aware that it is a one-way road.",
      "connections": [
        {
          "region": "Hoenn",
          "location": "Mossdeep City",
          "direction": "s"
        },
        {
          "region": "Hoenn",
          "location": "Marine Cave",
          "direction": "a"
        },
        {
          "region": "Hoenn",
          "location": "Shoal Cave",
          "direction": "a"
        }
      ]
    },
    {
      "name": "Route 126",
      "description": "Even a pro swimmer would need three entire days to circuit around the crater containing Sootopolis City.",
      "connections": [
        {
          "region": "Hoenn",
          "location": "Route 124",
          "direction": "n"
        },
        {
          "region": "Hoenn",
          "location": "Route 127",
          "direction": "e"
        },
        {
          "region": "Hoenn",
          "location": "Sootopolis City",
          "direction": "a"
        }
      ]
    },
    {
      "name": "Route 127",
      "description": "With no place to stop and rest in these waters, it is very hard for a swimmer to make it across this route.",
      "connections": [
        {
          "region": "Hoenn",
          "location": "Mossdeep City",
          "direction": "n"
        },
        {
          "region": "Hoenn",
          "location": "Route 126",
          "direction": "w"
        },
        {
          "region": "Hoenn",
          "location": "Route 128",
          "direction": "s"
        },
        {
          "region": "Hoenn",
          "location": "Marine Cave",
          "direction": "a"
        }
      ]
    },
    {
      "name": "Route 128",
      "description": "The ocean floor beneath this water route is rumored to contain an undiscovered ruin.",
      "connections": [
        {
          "region": "Hoenn",
          "location": "Route 127",
          "direction": "n"
        },
        {
          "region": "Hoenn",
          "location": "Ever Grande City",
          "direction": "e"
        },
        {
          "region": "Hoenn",
          "location": "Route 129",
          "direction": "s"
        },
        {
          "region": "Hoenn",
          "location": "Seafloor Cavern",
          "direction": "a"
        }
      ]
    },
    {
      "name": "Route 129",
      "description": "Many Pokémon Trainers visit this route to train their Pokémon before challenging the Pokémon League.",
      "connections": [
        {
          "region": "Hoenn",
          "location": "Route 128",
          "direction": "n"
        },
        {
          "region": "Hoenn",
          "location": "Route 130",
          "direction": "w"
        },
        {
          "region": "Hoenn",
          "location": "Marine Cave",
          "direction": "a"
        }
      ]
    },
    {
      "name": "Route 130",
      "description": "This route was once a big topic of conversation due to a strange island that seemed to appear and then disappear.",
      "connections": [
        {
          "region": "Hoenn",
          "location": "Route 129",
          "direction": "e"
        },
        {
          "region": "Hoenn",
          "location": "Route 131",
          "direction": "w"
        },
        {
          "region": "Hoenn",
          "location": "Mirage Island",
          "direction": "a"
        }
      ]
    },
    {
      "name": "Route 131",
      "description": "It is the custom in Pacifidlog Town to swim a lap around this route before breakfast.",
      "connections": [
        {
          "region": "Hoenn",
          "location": "Route 130",
          "direction": "e"
        },
        {
          "region": "Hoenn",
          "location": "Pacifidlog Town",
          "direction": "w"
        },
        {
          "region": "Hoenn",
          "location": "Sky Pillar",
          "direction": "a"
        }
      ]
    },
    {
      "name": "Route 132",
      "description": "The children of Pacifidlog Town are said to be such strong swimmers that they frolic and play in these fierce currents.",
      "connections": [
        {
          "region": "Hoenn",
          "location": "Pacifidlog Town",
          "direction": "e"
        },
        {
          "region": "Hoenn",
          "location": "Route 133",
          "direction": "w"
        }
      ]
    },
    {
      "name": "Route 133",
      "description": "Trainers gather in this stretch of sea in search of something beyond its fierce currents.",
      "connections": [
        {
          "region": "Hoenn",
          "location": "Route 132",
          "direction": "e"
        },
        {
          "region": "Hoenn",
          "location": "Route 134",
          "direction": "w"
        }
      ]
    },
    {
      "name": "Route 134",
      "description": "This route is rather a famous diving spot among those who love exploring ancient ruins.",
      "connections": [
        {
          "region": "Hoenn",
          "location": "Route 133",
          "direction": "e"
        },
        {
          "region": "Hoenn",
          "location": "Slateport City",
          "direction": "w"
        },
        {
          "region": "Hoenn",
          "location": "Sealed Chamber",
          "direction": "a"
        }
      ]
    },
    {
      "name": "Petalburg Woods",
      "description": "This dense forest, with its abundance of trees, is well known to be a favorite habitat for Shroomish.",
      "connections": [
        {
          "region": "Hoenn",
          "location": "Route 104",
          "direction": "a"
        }
      ]
    },
    {
      "name": "Rusturf Tunnel",
      "description": "This stone tunnel links together Rustboro and Verdanturf. Its name was chosen as a mixture of the two.",
      "connections": [
        {
          "region": "Hoenn",
          "location": "Route 116",
          "direction": "a"
        },
        {
          "region": "Hoenn",
          "location": "Verdanturf Town",
          "direction": "a"
        }
      ]
    },
    {
      "name": "Island Cave",
      "description": "A small island on Route 105. The cave on this island is freezing cold.",
      "connections": [
        {
          "region": "Hoenn",
          "location": "Route 104",
          "direction": "a"
        }
      ]
    },
    {
      "name": "Granite Cave",
      "description": "This cavern is famous for its cave art, which depicts events from thousands of years ago.",
      "connections": [
        {
          "region": "Hoenn",
          "location": "Route 106",
          "direction": "a"
        }
      ]
    },
    {
      "name": "Sea Mauville",
      "description": "A facility that was decommissioned dozens of years ago. It is now maintained as a natural preserve.",
      "connections": [
        {
          "region": "Hoenn",
          "location": "Route 108",
          "direction": "a"
        }
      ]
    },
    {
      "name": "Oceanic Museum",
      "description": "A museum dedicated to how the sea sustains life.",
      "connections": [
        {
          "region": "Hoenn",
          "location": "Slateport City",
          "direction": "a"
        }
      ]
    },
    {
      "name": "Seaside Cycling Road",
      "description": "A facility that was decommissioned dozens of years ago. It is now maintained as a natural preserve.",
      "connections": [
        {
          "region": "Hoenn",
          "location": "Route 110",
          "direction": "a"
        }
      ]
    },
    {
      "name": "Trick House",
      "description": "Home of the Trick Master. Those who wish to play his game must find their way through a maze-like puzzle at the back of his house. If successful, they will be rewarded.",
      "connections": [
        {
          "region": "Hoenn",
          "location": "Route 110",
          "direction": "a"
        }
      ]
    },
    {
      "name": "Seaside Cycling Road",
      "description": "Though it was planned to be a subterranean city extending 69 floors underground, this project died in development.",
      "connections": [
        {
          "region": "Hoenn",
          "location": "Route 110",
          "direction": "a"
        }
      ]
    },
    {
      "name": "Desert Ruins",
      "description": "A strange ruin found in the desert. The rock formations here are highly unusual.",
      "connections": [
        {
          "region": "Hoenn",
          "location": "Route 111",
          "direction": "a"
        }
      ]
    },
    {
      "name": "Mirage Tower",
      "description": "A rocky tower that in the desert that is rumored to only be visible at certain times. There are people who claim to have found fossils in this tower.",
      "connections": [
        {
          "region": "Hoenn",
          "location": "Route 111",
          "direction": "a"
        }
      ]
    },
    {
      "name": "Fiery Path",
      "description": "The Pokémon that live in this area like to use the steam that erupts from the ground as a sort of bath.",
      "connections": [
        {
          "region": "Hoenn",
          "location": "Route 112",
          "direction": "a"
        }
      ]
    },
    {
      "name": "Jagged Pass",
      "description": "This mountain route is the result of a volcanic eruption in ages long past. It can only be traversed on an Acro Bike.",
      "connections": [
        {
          "region": "Hoenn",
          "location": "Mt. Chimney",
          "direction": "a"
        },
        {
          "region": "Hoenn",
          "location": "Route 112",
          "direction": "a"
        },
        {
          "region": "Hoenn",
          "location": "Team Magma Hideout",
          "direction": "a"
        }
      ]
    },
    {
      "name": "Mt. Chimney",
      "description": "This volcano towers to a height of nearly 5,000 feet (1,500 meters). The view from its peak is beyond compare.",
      "connections": [
        {
          "region": "Hoenn",
          "location": "Jagged Pass",
          "direction": "a"
        },
        {
          "region": "Hoenn",
          "location": "Route 112",
          "direction": "a"
        }
      ]
    },
    {
      "name": "Desert Underpass",
      "description": "A long underground tunnel that runs below Route 114. Fossils that sink under the sands of the desert occasionally wind up down here.",
      "connections": [
        {
          "region": "Hoenn",
          "location": "Route 114",
          "direction": "a"
        }
      ]
    },
    {
      "name": "Meteor Falls",
      "description": "This waterfall is said to have been the site of a meteor shower. An ancient people once made their home here.",
      "connections": [
        {
          "region": "Hoenn",
          "location": "Route 114",
          "direction": "a"
        },
        {
          "region": "Hoenn",
          "location": "Route 115",
          "direction": "a"
        }
      ]
    },
    {
      "name": "Weather Institute",
      "description": "The Weather Institute checks and keeps track of weather conditions throughout Hoenn. Its main project is the weather control machine which allows them to change the weather in certain areas.",
      "connections": [
        {
          "region": "Hoenn",
          "location": "Route 119",
          "direction": "a"
        }
      ]
    },
    {
      "name": "Scorched Slab",
      "description": "A small cave that rises out of a lake on Route 120. This cave's abnormally high temperature is rumored to be caused by a Pokémon.",
      "connections": [
        {
          "region": "Hoenn",
          "location": "Route 120",
          "direction": "a"
        }
      ]
    },
    {
      "name": "Ancient Tomb",
      "description": "The water that flows through this cave contains a high amount of iron.",
      "connections": [
        {
          "region": "Hoenn",
          "location": "Route 120",
          "direction": "a"
        }
      ]
    },
    {
      "name": "Safari Zone",
      "description": "This amusement area provides a rich environment in which to catch many different kinds of Pokémon.",
      "connections": [
        {
          "region": "Hoenn",
          "location": "Route 121",
          "direction": "a"
        }
      ]
    },
    {
      "name": "Mt. Pyre",
      "description": "The mountain is where spirits of Pokémon have rested and will always rest: past, present, and future.",
      "connections": [
        {
          "region": "Hoenn",
          "location": "Route 122",
          "direction": "a"
        }
      ]
    },
    {
      "name": "Lilycove Museum",
      "description": "This museum features a collection of fantastic artwork showcasing Pokémon and Contests. Most of the exhibits on the first floor are classical statues and sculptures featuring or symbolizing Pokémon, while the second floor is home to modern and vibrant artworks of Pokémon.",
      "connections": [
        {
          "region": "Hoenn",
          "location": "Lilycove City",
          "direction": "a"
        }
      ]
    },
    {
      "name": "Shoal Cave",
      "description": "This cave's appearance changes greatly between high tide and low tide.",
      "connections": [
        {
          "region": "Hoenn",
          "location": "Route 125",
          "direction": "a"
        }
      ]
    },
    {
      "name": "Team Aqua Hideout",
      "description": "This oceanic cavern is believed to be the base of operations for Team Aqua.",
      "connections": [
        {
          "region": "Hoenn",
          "location": "Lilycove City",
          "direction": "a"
        }
      ]
    },
    {
      "name": "Team Magma Hideout",
      "description": "This volcanic cavern is believed to be the base of operations for Team Magma.",
      "connections": [
        {
          "region": "Hoenn",
          "location": "Jagged Pass",
          "direction": "a"
        }
      ]
    },
    {
      "name": "Mossdeep Space Center",
      "description": "A space center located on the northeast corner of Mossdeep City. This destination was chosen because of Mossdeep's ideal weather, clear and sunny with stable winds. The Space Center successfully sends rockets into space, though specifics of the space missions are unknown.",
      "connections": [
        {
          "region": "Hoenn",
          "location": "Mossdeep City",
          "direction": "a"
        }
      ]
    },
    {
      "name": "Seafloor Cavern",
      "description": "It is said that a Pokémon once dwelled here in the ancient mists of a time long past.",
      "connections": [
        {
          "region": "Hoenn",
          "location": "Route 128",
          "direction": "a"
        }
      ]
    },
    {
      "name": "Cave of Origin",
      "description": "A long-sleeping Pokémon will descend upon this cavern in order to awaken its true powers.",
      "connections": [
        {
          "region": "Hoenn",
          "location": "Sootopolis City",
          "direction": "a"
        }
      ]
    },
    {
      "name": "Mirage Island",
      "description": "This island's visibility changes every day for unknown reasons. Nobody has ever been able to successfully locate this island on days when it isn't visible.",
      "connections": [
        {
          "region": "Hoenn",
          "location": "Route 130",
          "direction": "a"
        }
      ]
    },
    {
      "name": "Sky Pillar",
      "description": "This tower was created for the veneration of a Legendary Pokémon that lives far above in the heavens.",
      "connections": [
        {
          "region": "Hoenn",
          "location": "Route 131",
          "direction": "a"
        }
      ]
    },
    {
      "name": "Victory Road",
      "description": "This challenging path forces Trainers who hope to overcome the Pokémon League to first surpass their own limits.",
      "connections": [
        {
          "region": "Hoenn",
          "location": "Ever Grande City",
          "direction": "a"
        }
      ]
    },
    {
      "name": "Sealed Chamber",
      "description": "Ancient Braille text is inscribed on rocks in this undersea cavern.",
      "connections": [
        {
          "region": "Hoenn",
          "location": "Route 134",
          "direction": "a"
        }
      ]
    },
    {
      "name": "Artisan Cave",
      "description": "This cave runs under the Battle Frontier. It is named after the several Smeargle that inhabit it.",
      "connections": [
        {
          "region": "Hoenn",
          "location": "Battle Frontier",
          "direction": "a"
        }
      ]
    },
    {
      "name": "Altering Cave",
      "description": "This island has been known by this name since the distant past. No one today knows where it got this name, however.",
      "connections": [
        {
          "region": "Hoenn",
          "location": "Route 103",
          "direction": "a"
        }
      ]
    },
    {
      "name": "Southern Island",
      "description": "This small island is surrounded by a mysterious veil that makes approach impossible for mere humans."
    },
    {
      "name": "Marine Cave",
      "description": "This unusual cave has been known to change locations. It is always found emerged from the sea.",
      "connections": [
        {
          "region": "Hoenn",
          "location": "Route 105",
          "direction": "a"
        },
        {
          "region": "Hoenn",
          "location": "Route 125",
          "direction": "a"
        },
        {
          "region": "Hoenn",
          "location": "Route 127",
          "direction": "a"
        },
        {
          "region": "Hoenn",
          "location": "Route 129",
          "direction": "a"
        }
      ]
    },
    {
      "name": "Terra Cave",
      "description": "This unusual cave has been known to change locations. It is always found emerged from the ground.",
      "connections": [
        {
          "region": "Hoenn",
          "location": "Route 114",
          "direction": "a"
        },
        {
          "region": "Hoenn",
          "location": "Route 115",
          "direction": "a"
        },
        {
          "region": "Hoenn",
          "location": "Route 116",
          "direction": "a"
        },
        {
          "region": "Hoenn",
          "location": "Route 118",
          "direction": "a"
        }
      ]
    },
    {
      "name": "S.S. Tidal",
      "description": "A ferry from the Hoenn region. Its captain is Mr. Briney. The S.S. Tidal transports players from one location to another. Its main voyage takes players from Lilycove City to Slateport City and vice versa, but other tickets allow other locations to be reached.",
      "connections": [
        {
          "region": "Hoenn",
          "location": "Slateport City",
          "direction": "f"
        },
        {
          "region": "Hoenn",
          "location": "Lilycove City",
          "direction": "f"
        },
        {
          "region": "Hoenn",
          "location": "Battle Frontier",
          "direction": "f"
        },
        {
          "region": "Hoenn",
          "location": "Battle Resort",
          "direction": "f"
        }
      ]
    },
    {
      "name": "Mirage Caves",
      "description": "It is said that these caves can only be spotted with the help of Latias or Latios."
    },
    {
      "name": "Mirage Forests",
      "description": "It is said that forests caves can only be spotted with the help of Latias or Latios."
    },
    {
      "name": "Mirage Islands",
      "description": "It is said that these islands can only be spotted with the help of Latias or Latios."
    },
    {
      "name": "Mirage Mountains",
      "description": "It is said that these mountains can only be spotted with the help of Latias or Latios."
    },
    {
      "name": "Faraway Island",
      "description": "A tropical island located far from the Hoenn mainland. The legendary Pokémon Mew was studied here a long time ago."
    }
  ]
}