{
  "name": "Johto",
  "starterPokemon": [
    "Chikorita",
    "Cindaquil",
    "Totodile"
  ],
  "startingLocation": "New Bark Town",
  "professor": "Elm",
  "locations": [
    {
      "name": "New Bark Town",
      "description": "A town where the wind blows and tells of impending change.",
      "connections": [
        {
          "region": "Kanto",
          "location": "Route 27",
          "direction": "e"
        },
        {
          "region": "Johto",
          "location": "Route 29",
          "direction": "w"
        }
      ]
    },
    {
      "name": "Cherrygrove City",
      "description": "A city where you can smell small flowers and a sea breeze.",
      "connections": [
        {
          "region": "Johto",
          "location": "Route 30",
          "direction": "n"
        },
        {
          "region": "Johto",
          "location": "Route 29",
          "direction": "e"
        }
      ]
    },
    {
      "name": "Violet City",
      "description": "This old village is still surrounded by trees and other scenery.",
      "connections": [
        {
          "region": "Johto",
          "location": "Route 31",
          "direction": "e"
        },
        {
          "region": "Johto",
          "location": "Route 36",
          "direction": "w"
        },
        {
          "region": "Johto",
          "location": "Route 32",
          "direction": "s"
        },
        {
          "region": "Johto",
          "location": "Sprout Tower",
          "direction": "a"
        }
      ]
    },
    {
      "name": "Azalea Town",
      "description": "A town where people and Pokémon live together in simple harmony.",
      "connections": [
        {
          "region": "Johto",
          "location": "Route 33",
          "direction": "e"
        },
        {
          "region": "Johto",
          "location": "Ilex Forest",
          "direction": "a"
        },
        {
          "region": "Johto",
          "location": "Slowpoke Well",
          "direction": "a"
        }
      ]
    },
    {
      "name": "Goldenrod City",
      "description": "A developing city where people and Pokémon come and go as they like.",
      "connections": [
        {
          "region": "Johto",
          "location": "Route 35",
          "direction": "n"
        },
        {
          "region": "Johto",
          "location": "Route 34",
          "direction": "s"
        },
        {
          "region": "Johto",
          "location": "Goldenrod Radio Tower",
          "direction": "a"
        },
        {
          "region": "Johto",
          "location": "Global Terminal",
          "direction": "a"
        },
        {
          "region": "Johto",
          "location": "Goldenrod Tunnel",
          "direction": "a"
        },
        {
          "region": "Johto",
          "location": "Magnet Train",
          "direction": "a"
        }
      ]
    },
    {
      "name": "Ecruteak City",
      "description": "A city that even now bears the marks of its history.",
      "connections": [
        {
          "region": "Johto",
          "location": "Route 42",
          "direction": "e"
        },
        {
          "region": "Johto",
          "location": "Route 38",
          "direction": "w"
        },
        {
          "region": "Johto",
          "location": "Route 37",
          "direction": "s"
        },
        {
          "region": "Johto",
          "location": "Bellchime Trail",
          "direction": "a"
        },
        {
          "region": "Johto",
          "location": "Burned Tower",
          "direction": "a"
        }
      ]
    },
    {
      "name": "Olivine City",
      "description": "A city where you can hear the melody of the sea.",
      "connections": [
        {
          "region": "Johto",
          "location": "Route 39",
          "direction": "n"
        },
        {
          "region": "Johto",
          "location": "Route 40",
          "direction": "w"
        },
        {
          "region": "Johto",
          "location": "Glitter Lighthouse",
          "direction": "a"
        },
        {
          "region": "Johto",
          "location": "S.S. Aqua",
          "direction": "a"
        }
      ]
    },
    {
      "name": "Cianwood City",
      "description": "A beachside city that has benefitted greatly from the sea.",
      "connections": [
        {
          "region": "Johto",
          "location": "Route 41",
          "direction": "e"
        },
        {
          "region": "Johto",
          "location": "Cliff Edge Gate",
          "direction": "a"
        }
      ]
    },
    {
      "name": "Mahogany Town",
      "description": "A town with a suspicious air to it. It's a hiding place for ninjas.",
      "connections": [
        {
          "region": "Johto",
          "location": "Route 43",
          "direction": "n"
        },
        {
          "region": "Johto",
          "location": "Route 44",
          "direction": "e"
        },
        {
          "region": "Johto",
          "location": "Route 42",
          "direction": "w"
        },
        {
          "region": "Johto",
          "location": "Team Rocket HQ",
          "direction": "a"
        }
      ]
    },
    {
      "name": "Blackthorn City",
      "description": "A mysterious mountain village cut into a rock face.",
      "connections": [
        {
          "region": "Johto",
          "location": "Route 45",
          "direction": "s"
        },
        {
          "region": "Johto",
          "location": "Ice Path",
          "direction": "a"
        },
        {
          "region": "Johto",
          "location": "Dragon's Den",
          "direction": "a"
        }
      ]
    },
    {
      "name": "Safari Zone Gate",
      "description": "A place where you can experience wild thrills safely.",
      "connections": [
        {
          "region": "Johto",
          "location": "Route 48",
          "direction": "s"
        },
        {
          "region": "Johto",
          "location": "Safari Zone",
          "direction": "a"
        }
      ]
    },
    {
      "name": "Frontier Access",
      "description": "A place where people from all over come to show off their strength.",
      "connections": [
        {
          "region": "Johto",
          "location": "Route 40",
          "direction": "s"
        },
        {
          "region": "Johto",
          "location": "Battle Frontier",
          "direction": "a"
        }
      ]
    },
    {
      "name": "Route 29",
      "description": "A road that begins a journey. The road smells like freshly cut grass.",
      "connections": [
        {
          "region": "Johto",
          "location": "Route 46",
          "direction": "n"
        },
        {
          "region": "Johto",
          "location": "New Bark Town",
          "direction": "e"
        },
        {
          "region": "Johto",
          "location": "Cherrygrove City",
          "direction": "w"
        }
      ]
    },
    {
      "name": "Route 30",
      "description": "A grassy path where you can battle other young Trainers.",
      "connections": [
        {
          "region": "Johto",
          "location": "Route 31",
          "direction": "n"
        },
        {
          "region": "Johto",
          "location": "Cherrygrove City",
          "direction": "s"
        }
      ]
    },
    {
      "name": "Route 31",
      "description": "A short, nostalgic path winding through nature.",
      "connections": [
        {
          "region": "Johto",
          "location": "Violet City",
          "direction": "w"
        },
        {
          "region": "Johto",
          "location": "Route 30",
          "direction": "s"
        },
        {
          "region": "Johto",
          "location": "Dark Cave",
          "direction": "a"
        }
      ]
    },
    {
      "name": "Route 32",
      "description": "A path crossed by the Magnet Train bridge--nature meets technology.",
      "connections": [
        {
          "region": "Johto",
          "location": "Violet City",
          "direction": "n"
        },
        {
          "region": "Johto",
          "location": "Ruins of Alph",
          "direction": "w"
        },
        {
          "region": "Johto",
          "location": "Union Cave",
          "direction": "s"
        }
      ]
    },
    {
      "name": "Route 33",
      "description": "A grassy path where you can battle other young Trainers.",
      "connections": [
        {
          "region": "Johto",
          "location": "Union Cave",
          "direction": "n"
        },
        {
          "region": "Johto",
          "location": "Azalea Town",
          "direction": "w"
        }
      ]
    },
    {
      "name": "Route 34",
      "description": "A lush, green path, even though it's right next to a city.",
      "connections": [
        {
          "region": "Johto",
          "location": "Goldenrod City",
          "direction": "n"
        },
        {
          "region": "Johto",
          "location": "Ilex Forest",
          "direction": "a"
        }
      ]
    },
    {
      "name": "Route 35",
      "description": "A bright path with a lake that's easy on the eyes and easy to traverse.",
      "connections": [
        {
          "region": "Johto",
          "location": "Route 36",
          "direction": "n"
        },
        {
          "region": "Johto",
          "location": "Goldenrod City",
          "direction": "s"
        },
        {
          "region": "Johto",
          "location": "National Park",
          "direction": "a"
        }
      ]
    },
    {
      "name": "Route 36",
      "description": "A green and densely overgrown path that forks in two directions.",
      "connections": [
        {
          "region": "Johto",
          "location": "Route 37",
          "direction": "n"
        },
        {
          "region": "Johto",
          "location": "Violet City",
          "direction": "e"
        },
        {
          "region": "Johto",
          "location": "Route 35",
          "direction": "s"
        },
        {
          "region": "Johto",
          "location": "Ruins of Alph",
          "direction": "s"
        },
        {
          "region": "Johto",
          "location": "National Park",
          "direction": "a"
        }
      ]
    },
    {
      "name": "Route 37",
      "description": "A popular route for Trainers, marked by three Apricorn trees.",
      "connections": [
        {
          "region": "Johto",
          "location": "Ecruteak City",
          "direction": "n"
        },
        {
          "region": "Johto",
          "location": "Route 36",
          "direction": "s"
        }
      ]
    },
    {
      "name": "Route 38",
      "description": "A path that weaves through trees and comes out at a farm.",
      "connections": [
        {
          "region": "Johto",
          "location": "Ecruteak City",
          "direction": "e"
        },
        {
          "region": "Johto",
          "location": "Route 39",
          "direction": "w"
        }
      ]
    },
    {
      "name": "Route 39",
      "description": "A downhill path that passes through a grassy and breezy plain.",
      "connections": [
        {
          "region": "Johto",
          "location": "Route 38",
          "direction": "e"
        },
        {
          "region": "Johto",
          "location": "Olivine City",
          "direction": "s"
        },
        {
          "region": "Johto",
          "location": "Moomoo Farm",
          "direction": "a"
        }
      ]
    },
    {
      "name": "Route 40",
      "description": "You can hear the waves on this path from west Olivine City to the sea.",
      "connections": [
        {
          "region": "Johto",
          "location": "Frontier Access",
          "direction": "n"
        },
        {
          "region": "Johto",
          "location": "Olivine City",
          "direction": "e"
        },
        {
          "region": "Johto",
          "location": "Route 41",
          "direction": "s"
        }
      ]
    },
    {
      "name": "Route 41",
      "description": "A rough spot in the sea where whirlpools block your path.",
      "connections": [
        {
          "region": "Johto",
          "location": "Route 38",
          "direction": "n"
        },
        {
          "region": "Johto",
          "location": "Cianwood City",
          "direction": "w"
        },
        {
          "region": "Johto",
          "location": "Whirl Islands",
          "direction": "a"
        }
      ]
    },
    {
      "name": "Route 42",
      "description": "A small path opened at the base of challenging Mt. Mortar with multiple entrances to it.",
      "connections": [
        {
          "region": "Johto",
          "location": "Mahogany Town",
          "direction": "e"
        },
        {
          "region": "Johto",
          "location": "Ecruteak City",
          "direction": "w"
        },
        {
          "region": "Johto",
          "location": "Mt. Mortar",
          "direction": "a"
        }
      ]
    },
    {
      "name": "Route 43",
      "description": "A woodland path that comes out at a lake. Beware the greedy gate.",
      "connections": [
        {
          "region": "Johto",
          "location": "Mahogany Town",
          "direction": "s"
        },
        {
          "region": "Johto",
          "location": "Lake of Rage",
          "direction": "a"
        }
      ]
    },
    {
      "name": "Route 44",
      "description": "A wonderful path with a few pleasant springs and abundant greenery.",
      "connections": [
        {
          "region": "Johto",
          "location": "Mahogany Town",
          "direction": "w"
        },
        {
          "region": "Johto",
          "location": "Ice Path",
          "direction": "a"
        }
      ]
    },
    {
      "name": "Route 45",
      "description": "A winding road by a river, but called \"Mountain Road.\"",
      "connections": [
        {
          "region": "Johto",
          "location": "Blackthorn City",
          "direction": "n"
        },
        {
          "region": "Johto",
          "location": "Route 46",
          "direction": "w"
        },
        {
          "region": "Johto",
          "location": "Dark Cave",
          "direction": "a"
        }
      ]
    },
    {
      "name": "Route 46",
      "description": "A way home that runs from the base of the mountains to the plains.",
      "connections": [
        {
          "region": "Johto",
          "location": "Route 45",
          "direction": "e"
        },
        {
          "region": "Johto",
          "location": "Route 29",
          "direction": "s"
        },
        {
          "region": "Johto",
          "location": "Dark Cave",
          "direction": "a"
        }
      ]
    },
    {
      "name": "Route 47",
      "description": "A road on a cliff that strikes fear in the hearts of those who dare to pass.",
      "connections": [
        {
          "region": "Johto",
          "location": "Route 48",
          "direction": "n"
        },
        {
          "region": "Johto",
          "location": "Cliff Edge Gate",
          "direction": "e"
        },
        {
          "region": "Johto",
          "location": "Cliff Cave",
          "direction": "a"
        },
        {
          "region": "Johto",
          "location": "Embedded Tower",
          "direction": "a"
        }
      ]
    },
    {
      "name": "Route 48",
      "description": "A pleasant path from the base of the mountain to the Safari Zone.",
      "connections": [
        {
          "region": "Johto",
          "location": "Safari Zone Gate",
          "direction": "n"
        },
        {
          "region": "Johto",
          "location": "Route 47",
          "direction": "s"
        }
      ]
    },
    {
      "name": "Dark Cave",
      "description": "A dark, difficult-to-navigate tunnel that runs beneath the Johto region.",
      "connections": [
        {
          "region": "Johto",
          "location": "Route 31",
          "direction": "a"
        },
        {
          "region": "Johto",
          "location": "Route 45",
          "direction": "a"
        },
        {
          "region": "Johto",
          "location": "Route 46",
          "direction": "a"
        }
      ]
    },
    {
      "name": "Sprout Tower",
      "description": "A tower where they study diligently to learn to live with Pokémon.",
      "connections": [
        {
          "region": "Johto",
          "location": "Violet City",
          "direction": "a"
        }
      ]
    },
    {
      "name": "Ruins of Alph",
      "description": "A place where you can find a former adventure.",
      "connections": [
        {
          "region": "Johto",
          "location": "Route 32",
          "direction": "a"
        },
        {
          "region": "Johto",
          "location": "Route 36",
          "direction": "a"
        }
      ]
    },
    {
      "name": "Union Cave",
      "description": "Deep underground, it's connected to the ocean. The water flows here.",
      "connections": [
        {
          "region": "Johto",
          "location": "Route 32",
          "direction": "a"
        },
        {
          "region": "Johto",
          "location": "Route 33",
          "direction": "a"
        }
      ]
    },
    {
      "name": "Slowpoke Well",
      "description": "When Slowpoke are thirsty, they come here to drink.",
      "connections": [
        {
          "region": "Johto",
          "location": "Azalea Town",
          "direction": "a"
        }
      ]
    },
    {
      "name": "Ilex Forest",
      "description": "A large forest full of trees that are used to make charcoal.",
      "connections": [
        {
          "region": "Johto",
          "location": "Azalea Town",
          "direction": "a"
        },
        {
          "region": "Johto",
          "location": "Route 34",
          "direction": "a"
        }
      ]
    },
    {
      "name": "Goldenrod Radio Tower",
      "description": "The Radio Tower in Goldenrod City broadcasts numerous programs daily, the most prominent of such being Professor Oak's Pokémon Talk and Buena's Password.",
      "connections": [
        {
          "region": "Johto",
          "location": "Goldenrod City",
          "direction": "a"
        }
      ]
    },
    {
      "name": "Global Terminal",
      "description": "Also known as the Global Trade Station, or GTS for short. Here Trainers can access the Global Trade System, a worldwide network over which Trainers from all over the world can trade Pokémon.",
      "connections": [
        {
          "region": "Johto",
          "location": "Goldenrod City",
          "direction": "a"
        }
      ]
    },
    {
      "name": "Goldenrod Tunnel",
      "description": "A shopping district stretching below Goldenrod City. The shops that are open in the Tunnel depend on the days of the week and, in some cases, the time of day.",
      "connections": [
        {
          "region": "Johto",
          "location": "Goldenrod City",
          "direction": "a"
        }
      ]
    },
    {
      "name": "Magnet Train",
      "description": "A maglev that runs between Johto's Goldenrod City and Kanto's Saffron City. It allows rapid travel between the two cities, moving at over 340 miles per hour (over 550 kilometers per hour).",
      "connections": [
        {
          "region": "Johto",
          "location": "Goldenrod City",
          "direction": "a"
        },
        {
          "region": "Kanto",
          "location": "Saffron City",
          "direction": "a"
        }
      ]
    },
    {
      "name": "National Park",
      "description": "A spacious and beautiful park. It's connected to the Pokéathlon Dome.",
      "connections": [
        {
          "region": "Johto",
          "location": "Route 35",
          "direction": "a"
        },
        {
          "region": "Johto",
          "location": "Route 36",
          "direction": "a"
        },
        {
          "region": "Johto",
          "location": "Pokéathlon Dome",
          "direction": "a"
        }
      ]
    },
    {
      "name": "Pokéathlon Dome",
      "description": "A place where Pokémon can compete against each other's strengths.",
      "connections": [
        {
          "region": "Johto",
          "location": "National Park",
          "direction": "a"
        }
      ]
    },
    {
      "name": "Bell Tower",
      "description": "A tower that's said to have a legendary Pokémon that lands there.",
      "connections": [
        {
          "region": "Johto",
          "location": "Bellchime Trail",
          "direction": "a"
        }
      ]
    },
    {
      "name": "Bellchime Trail",
      "description": "A path said to always be bathed in sunset, no matter what the season.",
      "connections": [
        {
          "region": "Johto",
          "location": "Ecruteak City",
          "direction": "a"
        },
        {
          "region": "Johto",
          "location": "Bell Tower",
          "direction": "a"
        }
      ]
    },
    {
      "name": "Burned Tower",
      "description": "A tower that was hit by lightning, and subsequently caught fire and burned.",
      "connections": [
        {
          "region": "Johto",
          "location": "Ecruteak City",
          "direction": "a"
        }
      ]
    },
    {
      "name": "Moomoo Farm",
      "description": "A small farm located on Route 39. Its slogan is: \"Enjoy Our Fresh and Tasty Milk\". The farm keeps Miltank that produce popular milk for humans and Pokémon.",
      "connections": [
        {
          "region": "Johto",
          "location": "Route 39",
          "direction": "a"
        }
      ]
    },
    {
      "name": "Glitter Lighthouse",
      "description": "It shines brightly over the ocean with the power of Ampharos.",
      "connections": [
        {
          "region": "Johto",
          "location": "Olivine City",
          "direction": "a"
        }
      ]
    },
    {
      "name": "Battle Frontier",
      "description": "A place where people from all over come to show off their strength.",
      "connections": [
        {
          "region": "Johto",
          "location": "Frontier Access",
          "direction": "a"
        }
      ]
    },
    {
      "name": "Cliff Edge Gate",
      "description": "This small cavern is the gateway to the newly-constructed Safari Zone, just west of Cianwood City. An information desk for the Safari Zone can be found here, alongside a giant poster promoting the Safari Zone.",
      "connections": [
        {
          "region": "Johto",
          "location": "Cianwood City",
          "direction": "a"
        },
        {
          "region": "Johto",
          "location": "Route 47",
          "direction": "a"
        }
      ]
    },
    {
      "name": "Cliff Cave",
      "description": "A small cave in the cliffs of Route 47 that offers Trainers access to Route 48 and the Safari Zone.",
      "connections": [
        {
          "region": "Johto",
          "location": "Route 47",
          "direction": "a"
        }
      ]
    },
    {
      "name": "Embedded Tower",
      "description": "An enormously tall tower built by people who came from the Hoenn region. Its peak was said to touch the sky, and part of it was embedded into the cliffs of Route 47, running deep underground into the ocean— thus connecting the land, the sea, and the sky.",
      "connections": [
        {
          "region": "Johto",
          "location": "Route 47",
          "direction": "a"
        }
      ]
    },
    {
      "name": "Safari Zone",
      "description": "A special Pokémon preserve where Trainers can capture certain types of Pokémon. It is located at the Safari Zone Gate, a bazaar that sprung up due to the Safari Zone's popularity. It is owned by Baoba, the owner of the Kanto Safari Zone.",
      "connections": [
        {
          "region": "Johto",
          "location": "Safari Zone Gate",
          "direction": "a"
        }
      ]
    },
    {
      "name": "Whirl Islands",
      "description": "Four islands that are protected by whirlpools and are difficult to reach.",
      "connections": [
        {
          "region": "Johto",
          "location": "Route 41",
          "direction": "a"
        }
      ]
    },
    {
      "name": "Mt. Mortar",
      "description": "A naturally large cavern that is incredibly spacious.",
      "connections": [
        {
          "region": "Johto",
          "location": "Route 42",
          "direction": "a"
        }
      ]
    },
    {
      "name": "Lake of Rage",
      "description": "A huge lake full of clear, blue water.",
      "connections": [
        {
          "region": "Johto",
          "location": "Route 43",
          "direction": "a"
        }
      ]
    },
    {
      "name": "Team Rocket HQ",
      "description": "\"Just a Souvenir Shop\" in Mahogany Town.",
      "connections": [
        {
          "region": "Johto",
          "location": "Mahogany Town",
          "direction": "a"
        }
      ]
    },
    {
      "name": "Ice Path",
      "description": "A cave that connects Route 44 to Blackthorn City.",
      "connections": [
        {
          "region": "Johto",
          "location": "Route 44",
          "direction": "a"
        },
        {
          "region": "Johto",
          "location": "Blackthorn City",
          "direction": "a"
        }
      ]
    },
    {
      "name": "Dragon's Den",
      "description": "A flooded cavern underneath Blackthorn City. The Master can be found here, inside the Dragon Shrine.",
      "connections": [
        {
          "region": "Johto",
          "location": "Blackthorn City",
          "direction": "a"
        }
      ]
    },
    {
      "name": "S.S. Aqua",
      "description": "A boat that traverses ocean paths using hydraulic power.",
      "connections": [
        {
          "region": "Johto",
          "location": "Olivine City",
          "direction": "a"
        },
        {
          "region": "Kanto",
          "location": "Vermilion City",
          "direction": "a"
        }
      ]
    },
    {
      "name": "Mt. Silver",
      "description": "A hallowed mountain that rises between the Johto and Kanto regions.",
      "connections": [
        {
          "region": "Kanto",
          "location": "Route 28",
          "direction": "a"
        }
      ]
    },
    {
      "name": "Sinjoh Ruins",
      "description": "A snow-covered area of old legends, surrounded by a wall of snow."
    }
  ]
}