{
  "name": "Kalos",
  "starterPokemon": [
    "Chespin",
    "Fennekin",
    "Froakie"
  ],
  "startingLocation": "Vaniville Town",
  "professor": "Sycamore",
  "locations": [
    {
      "name": "Vaniville Town",
      "description": "Blooming buds covered in morning dew exude hope for the future in this small town.",
      "connections": [
        {
          "region": "Kalos",
          "location": "Route 1 (Vaniville Pathway)",
          "direction": "n"
        }
      ]
    },
    {
      "name": "Aquacorde Town",
      "description": "A town that naturally sprang up as people flocked to this pristine riverside.",
      "connections": [
        {
          "region": "Kalos",
          "location": "Route 2 (Avance Trail)",
          "direction": "n"
        },
        {
          "region": "Kalos",
          "location": "Route 1 (Vaniville Pathway)",
          "direction": "s"
        }
      ]
    },
    {
      "name": "Santalune City",
      "description": "Many beginning Trainers gather in this friendly city to start a Pokémon journey.",
      "connections": [
        {
          "region": "Kalos",
          "location": "Route 4 (Parterre Way)",
          "direction": "n"
        },
        {
          "region": "Kalos",
          "location": "Route 22 (Détourner Way)",
          "direction": "e"
        },
        {
          "region": "Kalos",
          "location": "Route 3 (Ouvert Way)",
          "direction": "s"
        }
      ]
    },
    {
      "name": "Lumiose City",
      "description": "A dazzling metropolis of art and artifice, located in the very heart of the Kalos region.",
      "connections": [
        {
          "region": "Kalos",
          "location": "Route 14 (Laverre Nature Trail)",
          "direction": "n"
        },
        {
          "region": "Kalos",
          "location": "Route 16 (Mélancolie Path)",
          "direction": "e"
        },
        {
          "region": "Kalos",
          "location": "Route 13 (Lumiose Badlands)",
          "direction": "w"
        },
        {
          "region": "Kalos",
          "location": "Route 4 (Parterre Way)",
          "direction": "s"
        },
        {
          "region": "Kalos",
          "location": "Route 5 (Versant Road)",
          "direction": "s"
        },
        {
          "region": "Kalos",
          "location": "Kiloude City",
          "direction": "a"
        },
        {
          "region": "Kalos",
          "location": "Lysandre Labs",
          "direction": "a"
        }
      ]
    },
    {
      "name": "Camphrier Town",
      "description": "This ancient town was once famous for the long-neglected manor home of a noble family.",
      "connections": [
        {
          "region": "Kalos",
          "location": "Route 5 (Versant Road)",
          "direction": "e"
        },
        {
          "region": "Kalos",
          "location": "Route 7 (Rivière Walk)",
          "direction": "w"
        }
      ]
    },
    {
      "name": "Cyllage City",
      "description": "A city nestled between the cliffs and the sea, overlooked by steep Bicycle racecourses.",
      "connections": [
        {
          "region": "Kalos",
          "location": "Route 10 (Menhir Trail)",
          "direction": "n"
        },
        {
          "region": "Kalos",
          "location": "Route 8 (Muraille Coast)",
          "direction": "s"
        },
        {
          "region": "Kalos",
          "location": "Connecting Cave",
          "direction": "a"
        }
      ]
    },
    {
      "name": "Ambrette Town",
      "description": "This town was known only for its aquarium until the discovery of rare Fossils really put it on the map.",
      "connections": [
        {
          "region": "Kalos",
          "location": "Route 8 (Muraille Coast)",
          "direction": "n"
        },
        {
          "region": "Kalos",
          "location": "Route 9 (Spikes Passage)",
          "direction": "e"
        }
      ]
    },
    {
      "name": "Geosenge Town",
      "description": "A town lined with mysterious stones and encircled by strange ruins of old.",
      "connections": [
        {
          "region": "Kalos",
          "location": "Route 11 (Miroir Way)",
          "direction": "e"
        },
        {
          "region": "Kalos",
          "location": "Route 10 (Menhir Trail)",
          "direction": "s"
        },
        {
          "region": "Kalos",
          "location": "Team Flare Secret HQ",
          "direction": "a"
        }
      ]
    },
    {
      "name": "Shalour City",
      "description": "The seaside home of the Tower of Mastery, where the legend of mysterious stones lives on.",
      "connections": [
        {
          "region": "Kalos",
          "location": "Route 12 (Fourrage Road)",
          "direction": "e"
        },
        {
          "region": "Kalos",
          "location": "Tower of Mastery",
          "direction": "a"
        },
        {
          "region": "Kalos",
          "location": "Reflection Cave",
          "direction": "a"
        }
      ]
    },
    {
      "name": "Coumarine City",
      "description": "An exclusive resort area made popular thanks to its clear skies and mild atmosphere.",
      "connections": [
        {
          "region": "Kalos",
          "location": "Route 12 (Fourrage Road)",
          "direction": "w"
        },
        {
          "region": "Kalos",
          "location": "Route 13 (Lumiose Badlands)",
          "direction": "s"
        }
      ]
    },
    {
      "name": "Laverre City",
      "description": "An unearthly city created by those inspired by a mysterious and ancient tree 1,500 years old.",
      "connections": [
        {
          "region": "Kalos",
          "location": "Route 15 (Brun Way)",
          "direction": "e"
        },
        {
          "region": "Kalos",
          "location": "Route 14 (Laverre Nature Trail)",
          "direction": "s"
        },
        {
          "region": "Kalos",
          "location": "Poké Ball Factory",
          "direction": "a"
        }
      ]
    },
    {
      "name": "Dendemille Town",
      "description": "A rural town where Pokémon and windmills work together to farm the land in a chilly latitude.",
      "connections": [
        {
          "region": "Kalos",
          "location": "Route 17 (Mamoswine Road)",
          "direction": "e"
        },
        {
          "region": "Kalos",
          "location": "Route 15 (Brun Way)",
          "direction": "w"
        },
        {
          "region": "Kalos",
          "location": "Frost Cavern",
          "direction": "a"
        }
      ]
    },
    {
      "name": "Anistar City",
      "description": "Some say the enigmatic device used as a sundial came from outer space.",
      "connections": [
        {
          "region": "Kalos",
          "location": "Route 17 (Mamoswine Road)",
          "direction": "w"
        },
        {
          "region": "Kalos",
          "location": "Route 18 (Vallée Étroite Way)",
          "direction": "s"
        }
      ]
    },
    {
      "name": "Couriway Town",
      "description": "The railway brings people from great distances to see the huge, majestic falls.",
      "connections": [
        {
          "region": "Kalos",
          "location": "Route 18 (Vallée Étroite Way)",
          "direction": "n"
        },
        {
          "region": "Kalos",
          "location": "Route 19 (Grande Vallée Way)",
          "direction": "s"
        }
      ]
    },
    {
      "name": "Snowbelle City",
      "description": "They say the cold air flowing from the Pokémon Gym is responsible for this city's frozen state.",
      "connections": [
        {
          "region": "Kalos",
          "location": "Route 19 (Grande Vallée Way)",
          "direction": "e"
        },
        {
          "region": "Kalos",
          "location": "Route 21 (Dernière Way)",
          "direction": "w"
        },
        {
          "region": "Kalos",
          "location": "Route 20 (Winding Woods)",
          "direction": "s"
        }
      ]
    },
    {
      "name": "Pokémon League",
      "description": "This path is open only to those who can best every Pokémon Gym in the Kalos region.",
      "connections": [
        {
          "region": "Kalos",
          "location": "Victory Road",
          "direction": "a"
        }
      ]
    },
    {
      "name": "Kiloude City",
      "description": "This city, popular with Pokémon Trainers, is a typical example of southern Kalosian life.",
      "connections": [
        {
          "region": "Kalos",
          "location": "Lumiose City",
          "direction": "a"
        }
      ]
    },
    {
      "name": "Route 1 (Vaniville Pathway)",
      "description": "A small and quiet country lane that connects Vaniville Town and Aquacorde Town.",
      "connections": [
        {
          "region": "Kalos",
          "location": "Aquacorde Town",
          "direction": "n"
        },
        {
          "region": "Kalos",
          "location": "Vaniville Town",
          "direction": "s"
        }
      ]
    },
    {
      "name": "Route 2 (Avance Trail)",
      "description": "You'll find many Pokémon hiding among the tall grass that grows in tufts along this trail.",
      "connections": [
        {
          "region": "Kalos",
          "location": "Aquacorde Town",
          "direction": "s"
        },
        {
          "region": "Kalos",
          "location": "Santalune Forest",
          "direction": "a"
        }
      ]
    },
    {
      "name": "Route 3 (Ouvert Way)",
      "description": "The little rises and hollows of this lush forest are a favorite place for many kinds of Pokémon to play.",
      "connections": [
        {
          "region": "Kalos",
          "location": "Santalune City",
          "direction": "n"
        },
        {
          "region": "Kalos",
          "location": "Santalune Forest",
          "direction": "a"
        }
      ]
    },
    {
      "name": "Route 4 (Parterre Way)",
      "description": "This famed path's perfectly designed and executed gardens are its highlight and a special point of pride.",
      "connections": [
        {
          "region": "Kalos",
          "location": "Lumiose City",
          "direction": "n"
        },
        {
          "region": "Kalos",
          "location": "Santalune City",
          "direction": "s"
        }
      ]
    },
    {
      "name": "Route 5 (Versant Road)",
      "description": "Roller Skaters from across the Kalos region gather on this hilly path to demonstrate their best skills.",
      "connections": [
        {
          "region": "Kalos",
          "location": "Lumiose City",
          "direction": "e"
        },
        {
          "region": "Kalos",
          "location": "Camphrier Town",
          "direction": "w"
        }
      ]
    },
    {
      "name": "Route 6 (Palais Lane)",
      "description": "This tree-lined path was once covered with grass as tall as a man, but it was cleared by the palace.",
      "connections": [
        {
          "region": "Kalos",
          "location": "Route 7 (Rivière Walk)",
          "direction": "s"
        },
        {
          "region": "Kalos",
          "location": "Parfum Palace",
          "direction": "a"
        }
      ]
    },
    {
      "name": "Route 7 (Rivière Walk)",
      "description": "The longest single road in the Kalos region runs straight alongside one of its greatest rivers.",
      "connections": [
        {
          "region": "Kalos",
          "location": "Route 6 (Palais Lane)",
          "direction": "n"
        },
        {
          "region": "Kalos",
          "location": "Camphrier Town",
          "direction": "e"
        },
        {
          "region": "Kalos",
          "location": "Connecting Cave",
          "direction": "a"
        },
        {
          "region": "Kalos",
          "location": "Berry Fields",
          "direction": "a"
        },
        {
          "region": "Kalos",
          "location": "Battle Chateau",
          "direction": "a"
        }
      ]
    },
    {
      "name": "Route 8 (Muraille Coast)",
      "description": "This is a road of great contrasts, from the harsh rock of the cliffs to the soft sands of the beach.",
      "connections": [
        {
          "region": "Kalos",
          "location": "Cyllage City",
          "direction": "n"
        },
        {
          "region": "Kalos",
          "location": "Ambrette Town",
          "direction": "s"
        },
        {
          "region": "Kalos",
          "location": "Connecting Cave",
          "direction": "a"
        }
      ]
    },
    {
      "name": "Route 9 (Spikes Passage)",
      "description": "This rocky passage was created by retired Rhyhorn racers who forged a path where there was none.",
      "connections": [
        {
          "region": "Kalos",
          "location": "Ambrette Town",
          "direction": "w"
        },
        {
          "region": "Kalos",
          "location": "Glittering Cave",
          "direction": "a"
        }
      ]
    },
    {
      "name": "Route 10 (Menhir Trail)",
      "description": "Countless stones line this mysterious path in such numbers and arrays that it seems overwhelming.",
      "connections": [
        {
          "region": "Kalos",
          "location": "Geosenge Town",
          "direction": "n"
        },
        {
          "region": "Kalos",
          "location": "Cyllage City",
          "direction": "s"
        }
      ]
    },
    {
      "name": "Route 11 (Miroir Way)",
      "description": "One can feel the power of the earth's interior from the crystals that sprout along this mountain path.",
      "connections": [
        {
          "region": "Kalos",
          "location": "Geosenge Town",
          "direction": "w"
        },
        {
          "region": "Kalos",
          "location": "Reflection Cave",
          "direction": "a"
        }
      ]
    },
    {
      "name": "Route 12 (Fourrage Road)",
      "description": "Frolicking Skiddo can be seen and ridden at the Baa de Mer Ranch, located beside the breezy sea.",
      "connections": [
        {
          "region": "Kalos",
          "location": "Coumarine City",
          "direction": "e"
        },
        {
          "region": "Kalos",
          "location": "Shalour City",
          "direction": "w"
        },
        {
          "region": "Kalos",
          "location": "Azure Bay",
          "direction": "a"
        }
      ]
    },
    {
      "name": "Route 13 (Lumiose Badlands)",
      "description": "Since no plants can grow in the red clay of this great plain, it hosts the Power Plant instead.",
      "connections": [
        {
          "region": "Kalos",
          "location": "Coumarine City",
          "direction": "n"
        },
        {
          "region": "Kalos",
          "location": "Lumiose City",
          "direction": "s"
        },
        {
          "region": "Kalos",
          "location": "Kalos Power Plant",
          "direction": "a"
        }
      ]
    },
    {
      "name": "Route 14 (Laverre Nature Trail)",
      "description": "The lush trees and boggy swamps of this trail give off an eerie vibe, even in broad daylight.",
      "connections": [
        {
          "region": "Kalos",
          "location": "Laverre City",
          "direction": "n"
        },
        {
          "region": "Kalos",
          "location": "Lumiose City",
          "direction": "s"
        }
      ]
    },
    {
      "name": "Route 15 (Brun Way)",
      "description": "This path has become a popular hangout for the wild and directionless youths of Lumiose City.",
      "connections": [
        {
          "region": "Kalos",
          "location": "Dendemille Town",
          "direction": "e"
        },
        {
          "region": "Kalos",
          "location": "Laverre City",
          "direction": "w"
        },
        {
          "region": "Kalos",
          "location": "Route 16 (Mélancolie Path)",
          "direction": "s"
        },
        {
          "region": "Kalos",
          "location": "Lost Hotel",
          "direction": "a"
        }
      ]
    },
    {
      "name": "Route 16 (Mélancolie Path)",
      "description": "This rustic path beside the glittering metropolis of Lumiose City is a well-known fishing spot.",
      "connections": [
        {
          "region": "Kalos",
          "location": "Route 15 (Brun Way)",
          "direction": "n"
        },
        {
          "region": "Kalos",
          "location": "Lumiose City",
          "direction": "w"
        },
        {
          "region": "Kalos",
          "location": "Lost Hotel",
          "direction": "a"
        }
      ]
    },
    {
      "name": "Route 17 (Mamoswine Road)",
      "description": "Due to constant snowstorms and heavy snowfall, humans have no hope of traversing this road on foot.",
      "connections": [
        {
          "region": "Kalos",
          "location": "Anistar City",
          "direction": "e"
        },
        {
          "region": "Kalos",
          "location": "Dendemille Town",
          "direction": "w"
        }
      ]
    },
    {
      "name": "Route 18 (Vallée Étroite Way)",
      "description": "This path is best known for its trolley, once used for the coal mine, and the curious Inverse Battle house.",
      "connections": [
        {
          "region": "Kalos",
          "location": "Anistar City",
          "direction": "n"
        },
        {
          "region": "Kalos",
          "location": "Couriway Town",
          "direction": "s"
        },
        {
          "region": "Kalos",
          "location": "Terminus Cave",
          "direction": "a"
        }
      ]
    },
    {
      "name": "Route 19 (Grande Vallée Way)",
      "description": "This great valley can now be crossed thanks to its long bridge, built with the help of many Pokémon.",
      "connections": [
        {
          "region": "Kalos",
          "location": "Couriway Town",
          "direction": "n"
        },
        {
          "region": "Kalos",
          "location": "Snowbelle City",
          "direction": "w"
        }
      ]
    },
    {
      "name": "Route 20 (Winding Woods)",
      "description": "This path was designed to disturb the woods as little as possible, so it twists and turns among the trees.",
      "connections": [
        {
          "region": "Kalos",
          "location": "Snowbelle City",
          "direction": "e"
        },
        {
          "region": "Kalos",
          "location": "Pokémon Village",
          "direction": "a"
        }
      ]
    },
    {
      "name": "Route 21 (Dernière Way)",
      "description": "This is the path of the chosen, designed to hone the stalwart Trainers who dare face the Pokémon League.",
      "connections": [
        {
          "region": "Kalos",
          "location": "Snowbelle City",
          "direction": "e"
        },
        {
          "region": "Kalos",
          "location": "Victory Road",
          "direction": "w"
        }
      ]
    },
    {
      "name": "Route 22 (Détourner Way)",
      "description": "This lively path bustles with many Trainers and their Pokémon, all gathered here to train themselves.",
      "connections": [
        {
          "region": "Kalos",
          "location": "Santalune City",
          "direction": "w"
        },
        {
          "region": "Kalos",
          "location": "Victory Road",
          "direction": "a"
        },
        {
          "region": "Kalos",
          "location": "Chamber of Emptiness",
          "direction": "a"
        }
      ]
    },
    {
      "name": "Santalune Forest",
      "description": "The gentle light filtering through this sun-dappled forest makes it a popular spot for nature walks.",
      "connections": [
        {
          "region": "Kalos",
          "location": "Route 2 (Avance Trail)",
          "direction": "a"
        },
        {
          "region": "Kalos",
          "location": "Route 3 (Ouvert Way)",
          "direction": "a"
        }
      ]
    },
    {
      "name": "Chamber of Emptiness",
      "description": "A mysterious void. It is said that nothing can exist within it.",
      "connections": [
        {
          "region": "Kalos",
          "location": "Route 22 (Détourner Way)",
          "direction": "a"
        }
      ]
    },
    {
      "name": "Parfum Palace",
      "description": "A luxurious palace constructed 300 years ago by a king who wished to display his power to all.",
      "connections": [
        {
          "region": "Kalos",
          "location": "Route 6 (Palais Lane)",
          "direction": "a"
        }
      ]
    },
    {
      "name": "Battle Chateau",
      "description": "A facility where Trainers can earn ranks of nobility by battling other nobles.",
      "connections": [
        {
          "region": "Kalos",
          "location": "Route 7 (Rivière Walk)",
          "direction": "a"
        }
      ]
    },
    {
      "name": "Berry Fields",
      "description": "A small, walled off estate that contains many patches of soil that are perfect for berry planting.",
      "connections": [
        {
          "region": "Kalos",
          "location": "Route 7 (Rivière Walk)",
          "direction": "a"
        }
      ]
    },
    {
      "name": "Connecting Cave",
      "description": "This cave linking Route 7 (Rivière Walk) and Cyllage City is notable for its great hordes of Zubat.",
      "connections": [
        {
          "region": "Kalos",
          "location": "Route 7 (Rivière Walk)",
          "direction": "a"
        },
        {
          "region": "Kalos",
          "location": "Route 8 (Muraille Coast)",
          "direction": "a"
        },
        {
          "region": "Kalos",
          "location": "Cyllage City",
          "direction": "a"
        }
      ]
    },
    {
      "name": "Glittering Cave",
      "description": "Lose all sense of direction as you wander though this cave, where Luminous Moss glows emerald green.",
      "connections": [
        {
          "region": "Kalos",
          "location": "Route 9 (Spikes Passage)",
          "direction": "a"
        }
      ]
    },
    {
      "name": "Reflection Cave",
      "description": "The sheer faces of these rock walls reflect the images of people and Pokémon like nature's mirror.",
      "connections": [
        {
          "region": "Kalos",
          "location": "Route 11 (Miroir Way)",
          "direction": "a"
        },
        {
          "region": "Kalos",
          "location": "Shalour City",
          "direction": "a"
        }
      ]
    },
    {
      "name": "Tower of Mastery",
      "description": "A famous tower on the northern tip of Shalour City, where Trainers go to understand the phenomenon of Mega Evolution.",
      "connections": [
        {
          "region": "Kalos",
          "location": "Shalour City",
          "direction": "a"
        }
      ]
    },
    {
      "name": "Azure Bay",
      "description": "The deep blue ocean off Kalos's coast, where Pokémon from distant lands are said to visit.",
      "connections": [
        {
          "region": "Kalos",
          "location": "Route 12 (Fourrage Road)",
          "direction": "a"
        },
        {
          "region": "Kalos",
          "location": "Sea Spirit's Den",
          "direction": "a"
        }
      ]
    },
    {
      "name": "Sea Spirit's Den",
      "description": "A pit in the shallows of Azure Bay thought to have been from an ancient outpouring of energy.",
      "connections": [
        {
          "region": "Kalos",
          "location": "Azure Bay",
          "direction": "a"
        }
      ]
    },
    {
      "name": "Kalos Power Plant",
      "description": "An environmentally responsible power plant that generates solar power from space.",
      "connections": [
        {
          "region": "Kalos",
          "location": "Route 13 (Lumiose Badlands)",
          "direction": "a"
        }
      ]
    },
    {
      "name": "Poké Ball Factory",
      "description": "An expansive factory where every Poké Ball used in the Kalos region is produced.",
      "connections": [
        {
          "region": "Kalos",
          "location": "Laverre City",
          "direction": "a"
        }
      ]
    },
    {
      "name": "Lost Hotel",
      "description": "This once-famous hotel clings to the shade of its former glory after tragedy left it in ruins.",
      "connections": [
        {
          "region": "Kalos",
          "location": "Route 15 (Brun Way)",
          "direction": "a"
        },
        {
          "region": "Kalos",
          "location": "Route 16 (Mélancolie Path)",
          "direction": "a"
        }
      ]
    },
    {
      "name": "Frost Cavern",
      "description": "The drifting snow and impenetrable fog make this cavern a place of fantastical illusions.",
      "connections": [
        {
          "region": "Kalos",
          "location": "Dendemille Town",
          "direction": "a"
        }
      ]
    },
    {
      "name": "Lysandre Labs",
      "description": "Access to this hidden lab for Team Flare was found behind a china cabinet in Lysandre Café.",
      "connections": [
        {
          "region": "Kalos",
          "location": "Lumiose City",
          "direction": "a"
        }
      ]
    },
    {
      "name": "Team Flare Secret HQ",
      "description": "The base of Team Flare's operations, built in secret to activate the ultimate weapon.",
      "connections": [
        {
          "region": "Kalos",
          "location": "Geosenge Town",
          "direction": "a"
        }
      ]
    },
    {
      "name": "Terminus Cave",
      "description": "A coal mine that was closed a few years ago due to rumors of a monster living deep within it.",
      "connections": [
        {
          "region": "Kalos",
          "location": "Route 18 (Vallée Étroite Way)",
          "direction": "a"
        }
      ]
    },
    {
      "name": "Pokémon Village",
      "description": "Legends say a place exists where Pokémon live in hiding, but no one has ever found it.",
      "connections": [
        {
          "region": "Kalos",
          "location": "Route 20 (Winding Woods)",
          "direction": "a"
        },
        {
          "region": "Kalos",
          "location": "Unknown Dungeon",
          "direction": "a"
        }
      ]
    },
    {
      "name": "Victory Road",
      "description": "This treacherous path to the Pokémon League will break the hearts of even the toughest Trainers.",
      "connections": [
        {
          "region": "Kalos",
          "location": "Route 21 (Dernière Way)",
          "direction": "a"
        },
        {
          "region": "Kalos",
          "location": "Route 22 (Détourner Way)",
          "direction": "a"
        },
        {
          "region": "Kalos",
          "location": "Pokémon League",
          "direction": "a"
        }
      ]
    },
    {
      "name": "Unknown Dungeon",
      "description": "A very small cave deep inside the Pokémon Village. There doesn't appear to be anything of interest here.",
      "connections": [
        {
          "region": "Kalos",
          "location": "Pokémon Village",
          "direction": "a"
        }
      ]
    }
  ]
}