{
  "name": "Kanto",
  "starterPokemon": [
    "Bulbasaur",
    "Charmander",
    "Squirtle"
  ],
  "startingLocation": "Pallet Town",
  "professor": "Oak",
  "locations": [
    {
      "name": "Pallet Town",
      "description": "A small country town, home to Professor Oak's lab.",
      "connections": [
        {
          "region": "Kanto",
          "location": "Route 1",
          "direction": "n"
        },
        {
          "region": "Kanto",
          "location": "Route 21",
          "direction": "s"
        },
        {
          "region": "Kanto",
          "location": "Professor Oak's Laboratory",
          "direction": "a"
        }
      ]
    },
    {
      "name": "Viridian City",
      "description": "The nature-loving city where flowers bloom all year round.",
      "connections": [
        {
          "region": "Kanto",
          "location": "Route 2",
          "direction": "n"
        },
        {
          "region": "Kanto",
          "location": "Route 22",
          "direction": "w"
        },
        {
          "region": "Kanto",
          "location": "Route 1",
          "direction": "s"
        }
      ]
    },
    {
      "name": "Pewter City",
      "description": "The stone city that rests at the foot of a great rocky mountain.",
      "connections": [
        {
          "region": "Kanto",
          "location": "Route 3",
          "direction": "e"
        },
        {
          "region": "Kanto",
          "location": "Route 2",
          "direction": "s"
        },
        {
          "region": "Kanto",
          "location": "Pewter Museum of Science",
          "direction": "a"
        }
      ]
    },
    {
      "name": "Cerulean City",
      "description": "A beautiful city with flowing water and blooming flowers.",
      "connections": [
        {
          "region": "Kanto",
          "location": "Route 24",
          "direction": "n"
        },
        {
          "region": "Kanto",
          "location": "Route 9",
          "direction": "e"
        },
        {
          "region": "Kanto",
          "location": "Route 4",
          "direction": "w"
        },
        {
          "region": "Kanto",
          "location": "Route 5",
          "direction": "s"
        },
        {
          "region": "Kanto",
          "location": "Cerulean Cave",
          "direction": "a"
        }
      ]
    },
    {
      "name": "Vermilion City",
      "description": "The international port town where magnificent boats gather from across the world.",
      "connections": [
        {
          "region": "Kanto",
          "location": "Route 6",
          "direction": "n"
        },
        {
          "region": "Kanto",
          "location": "Route 11",
          "direction": "e"
        },
        {
          "region": "Kanto",
          "location": "S.S. Anne",
          "direction": "f"
        },
        {
          "region": "Johto",
          "location": "S.S. Aqua",
          "direction": "f"
        }
      ]
    },
    {
      "name": "Lavender Town",
      "description": "A solemn, quiet town. People come to visit their departed Pokémon.",
      "connections": [
        {
          "region": "Kanto",
          "location": "Route 10",
          "direction": "n"
        },
        {
          "region": "Kanto",
          "location": "Route 8",
          "direction": "w"
        },
        {
          "region": "Kanto",
          "location": "Route 12",
          "direction": "s"
        },
        {
          "region": "Kanto",
          "location": "Pokémon Tower",
          "direction": "a"
        }
      ]
    },
    {
      "name": "Celadon City",
      "description": "The city where people of many generations live together. The department store is located here.",
      "connections": [
        {
          "region": "Kanto",
          "location": "Route 7",
          "direction": "e"
        },
        {
          "region": "Kanto",
          "location": "Route 16",
          "direction": "w"
        },
        {
          "region": "Kanto",
          "location": "Team Rocket Hideout",
          "direction": "a"
        }
      ]
    },
    {
      "name": "Saffron City",
      "description": "Tall buildings tower overhead. It's the most populous city in all of the Kanto region.",
      "connections": [
        {
          "region": "Kanto",
          "location": "Route 5",
          "direction": "n"
        },
        {
          "region": "Kanto",
          "location": "Route 8",
          "direction": "e"
        },
        {
          "region": "Kanto",
          "location": "Route 7",
          "direction": "w"
        },
        {
          "region": "Kanto",
          "location": "Route 6",
          "direction": "s"
        },
        {
          "region": "Kanto",
          "location": "Silph Company",
          "direction": "a"
        },
        {
          "region": "Johto",
          "location": "Magnet Train",
          "direction": "a"
        }
      ]
    },
    {
      "name": "Fuchsia City",
      "description": "A historic village that has become new.",
      "connections": [
        {
          "region": "Kanto",
          "location": "Safari Zone",
          "direction": "n"
        },
        {
          "region": "Kanto",
          "location": "Route 15",
          "direction": "e"
        },
        {
          "region": "Kanto",
          "location": "Route 18",
          "direction": "w"
        },
        {
          "region": "Kanto",
          "location": "Route 19",
          "direction": "s"
        },
        {
          "region": "Kanto",
          "location": "Safari Zone",
          "direction": "a"
        }
      ]
    },
    {
      "name": "Cinnabar Island",
      "description": "A town used to be here until it was swept away by an eruption.",
      "connections": [
        {
          "region": "Kanto",
          "location": "Route 21",
          "direction": "n"
        },
        {
          "region": "Kanto",
          "location": "Route 20",
          "direction": "e"
        },
        {
          "region": "Kanto",
          "location": "Pokémon Mansion",
          "direction": "a"
        },
        {
          "region": "Kanto",
          "location": "Cinnabar Lab",
          "direction": "a"
        }
      ]
    },
    {
      "name": "Indigo Plateau",
      "description": "A plateau where the Pokémon League stands towering above all else.",
      "connections": [
        {
          "region": "Kanto",
          "location": "Route 23",
          "direction": "s"
        }
      ]
    },
    {
      "name": "Route 1",
      "description": "A calm country road full of greenery.",
      "connections": [
        {
          "region": "Kanto",
          "location": "Viridian City",
          "direction": "n"
        },
        {
          "region": "Kanto",
          "location": "Pallet Town",
          "direction": "s"
        }
      ]
    },
    {
      "name": "Route 2",
      "description": "A path that winds and bends around Viridian Forest.",
      "connections": [
        {
          "region": "Kanto",
          "location": "Pewter City",
          "direction": "n"
        },
        {
          "region": "Kanto",
          "location": "Diglett's Cave",
          "direction": "e"
        },
        {
          "region": "Kanto",
          "location": "Viridian City",
          "direction": "s"
        },
        {
          "region": "Kanto",
          "location": "Viridian Forest",
          "direction": "a"
        },
        {
          "region": "Kanto",
          "location": "Diglett's Cave",
          "direction": "a"
        }
      ]
    },
    {
      "name": "Route 3",
      "description": "A grassy road near the mountainside with large fallen rocks all about.",
      "connections": [
        {
          "region": "Kanto",
          "location": "Route 4",
          "direction": "n"
        },
        {
          "region": "Kanto",
          "location": "Pewter City",
          "direction": "w"
        }
      ]
    },
    {
      "name": "Route 4",
      "description": "A one-way road down a hill from Mt. Moon that leads to Cerulean City.",
      "connections": [
        {
          "region": "Kanto",
          "location": "Mt. Moon",
          "direction": "n"
        },
        {
          "region": "Kanto",
          "location": "Cerulean City",
          "direction": "e"
        },
        {
          "region": "Kanto",
          "location": "Route 3",
          "direction": "s"
        },
        {
          "region": "Kanto",
          "location": "Mt. Moon",
          "direction": "a"
        }
      ]
    },
    {
      "name": "Route 5",
      "description": "A placid sloping road connecting to the Underground Path.",
      "connections": [
        {
          "region": "Kanto",
          "location": "Cerulean City",
          "direction": "n"
        },
        {
          "region": "Kanto",
          "location": "Saffron City",
          "direction": "s"
        },
        {
          "region": "Kanto",
          "location": "Underground Path (Routes 5-6)",
          "direction": "a"
        }
      ]
    },
    {
      "name": "Route 6",
      "description": "A road linking Saffron City and Vermilion City. There's an entrance to the Underground Path.",
      "connections": [
        {
          "region": "Kanto",
          "location": "Saffron City",
          "direction": "n"
        },
        {
          "region": "Kanto",
          "location": "Vermilion City",
          "direction": "s"
        },
        {
          "region": "Kanto",
          "location": "Underground Path (Routes 5-6)",
          "direction": "a"
        }
      ]
    },
    {
      "name": "Route 7",
      "description": "A short path connecting Route 8 with the Underground Path.",
      "connections": [
        {
          "region": "Kanto",
          "location": "Saffron City",
          "direction": "e"
        },
        {
          "region": "Kanto",
          "location": "Celadon City",
          "direction": "w"
        },
        {
          "region": "Kanto",
          "location": "Underground Path (Routes 7-8)",
          "direction": "a"
        }
      ]
    },
    {
      "name": "Route 8",
      "description": "A short path connecting Route 7 with the Underground Path.",
      "connections": [
        {
          "region": "Kanto",
          "location": "Lavender Town",
          "direction": "e"
        },
        {
          "region": "Kanto",
          "location": "Saffron City",
          "direction": "w"
        },
        {
          "region": "Kanto",
          "location": "Underground Path (Routes 7-8)",
          "direction": "a"
        }
      ]
    },
    {
      "name": "Route 9",
      "description": "A road that forms a maze crossing a small, rocky mountain.",
      "connections": [
        {
          "region": "Kanto",
          "location": "Route 10",
          "direction": "e"
        },
        {
          "region": "Kanto",
          "location": "Cerulean City",
          "direction": "w"
        }
      ]
    },
    {
      "name": "Route 10",
      "description": "The route runs along a canal and leads to the cavernous Rock Tunnel.",
      "connections": [
        {
          "region": "Kanto",
          "location": "Route 9",
          "direction": "w"
        },
        {
          "region": "Kanto",
          "location": "Lavender Town",
          "direction": "s"
        },
        {
          "region": "Kanto",
          "location": "Rock Tunnel",
          "direction": "a"
        },
        {
          "region": "Kanto",
          "location": "Power Plant",
          "direction": "a"
        }
      ]
    },
    {
      "name": "Route 11",
      "description": "A meadow filled with Trainers. Diglett’s Cave is found here.",
      "connections": [
        {
          "region": "Kanto",
          "location": "Diglett's Cave",
          "direction": "n"
        },
        {
          "region": "Kanto",
          "location": "Route 12",
          "direction": "e"
        },
        {
          "region": "Kanto",
          "location": "Vermilion City",
          "direction": "w"
        },
        {
          "region": "Kanto",
          "location": "Diglett's Cave",
          "direction": "a"
        }
      ]
    },
    {
      "name": "Route 12",
      "description": "A bridge where fishermen gather. It's also called Silence Bridge.",
      "connections": [
        {
          "region": "Kanto",
          "location": "Lavender Town",
          "direction": "n"
        },
        {
          "region": "Kanto",
          "location": "Route 11",
          "direction": "e"
        },
        {
          "region": "Kanto",
          "location": "Route 13",
          "direction": "s"
        }
      ]
    },
    {
      "name": "Route 13",
      "description": "The mazelike path with a refreshing coastal view.",
      "connections": [
        {
          "region": "Kanto",
          "location": "Route 12",
          "direction": "n"
        },
        {
          "region": "Kanto",
          "location": "Route 14",
          "direction": "w"
        }
      ]
    },
    {
      "name": "Route 14",
      "description": "A pleasant coastal road where the salty breeze blows past the trees.",
      "connections": [
        {
          "region": "Kanto",
          "location": "Route 13",
          "direction": "e"
        },
        {
          "region": "Kanto",
          "location": "Route 15",
          "direction": "w"
        }
      ]
    },
    {
      "name": "Route 15",
      "description": "A long, grassy path stretching east of Fuchsia City.",
      "connections": [
        {
          "region": "Kanto",
          "location": "Route 14",
          "direction": "e"
        },
        {
          "region": "Kanto",
          "location": "Fuchsia City",
          "direction": "w"
        }
      ]
    },
    {
      "name": "Route 16",
      "description": "Links to the north side of Pokémon Road. A route that is always bustling.",
      "connections": [
        {
          "region": "Kanto",
          "location": "Route 17",
          "direction": "e"
        },
        {
          "region": "Kanto",
          "location": "Route 15",
          "direction": "w"
        }
      ]
    },
    {
      "name": "Route 17",
      "description": "Also known as Pokémon Road. A place where trainers and Pokémon can walk together.",
      "connections": [
        {
          "region": "Kanto",
          "location": "Route 16",
          "direction": "n"
        },
        {
          "region": "Kanto",
          "location": "Route 18",
          "direction": "s"
        }
      ]
    },
    {
      "name": "Route 18",
      "description": "Links to the south side of Pokémon Road. A place where Trainers gather, looking to battle.",
      "connections": [
        {
          "region": "Kanto",
          "location": "Route 17",
          "direction": "n"
        },
        {
          "region": "Kanto",
          "location": "Fuchsia City",
          "direction": "e"
        }
      ]
    },
    {
      "name": "Route 19",
      "description": "A popular spot for swimming and sunbathing.",
      "connections": [
        {
          "region": "Kanto",
          "location": "Fuchsia City",
          "direction": "n"
        },
        {
          "region": "Kanto",
          "location": "Route 20",
          "direction": "w"
        }
      ]
    },
    {
      "name": "Route 20",
      "description": "An ocean route separated down the middle by the Seafoam Islands.",
      "connections": [
        {
          "region": "Kanto",
          "location": "Route 19",
          "direction": "e"
        },
        {
          "region": "Kanto",
          "location": "Cinnabar Island",
          "direction": "w"
        },
        {
          "region": "Kanto",
          "location": "Seafoam Islands",
          "direction": "a"
        }
      ]
    },
    {
      "name": "Route 21",
      "description": "A sea path warmed by the volcano on the horizon.",
      "connections": [
        {
          "region": "Kanto",
          "location": "Pallet Town",
          "direction": "n"
        },
        {
          "region": "Kanto",
          "location": "Cinnabar Island",
          "direction": "s"
        }
      ]
    },
    {
      "name": "Route 22",
      "description": "A paved road that leads straight to the Pokémon League.",
      "connections": [
        {
          "region": "Kanto",
          "location": "Viridian City",
          "direction": "e"
        },
        {
          "region": "Kanto",
          "location": "Pokémon League Front Gate",
          "direction": "a"
        }
      ]
    },
    {
      "name": "Route 23",
      "description": "A mountain path where only the strongest Trainers may pass.",
      "connections": [
        {
          "region": "Kanto",
          "location": "Indigo Plateau",
          "direction": "n"
        },
        {
          "region": "Kanto",
          "location": "Pokémon League Front Gate",
          "direction": "a"
        },
        {
          "region": "Kanto",
          "location": "Victory Road",
          "direction": "a"
        }
      ]
    },
    {
      "name": "Route 24",
      "description": "Crosses the waterway via the famous Nugget Bridge, just north of Cerulean City.",
      "connections": [
        {
          "region": "Kanto",
          "location": "Route 25",
          "direction": "e"
        },
        {
          "region": "Kanto",
          "location": "Cerulean City",
          "direction": "s"
        }
      ]
    },
    {
      "name": "Route 25",
      "description": "A path that winds through the forest and comes out overlooking the sea.",
      "connections": [
        {
          "region": "Kanto",
          "location": "Route 24",
          "direction": "w"
        },
        {
          "region": "Kanto",
          "location": "Sea Cottage",
          "direction": "a"
        }
      ]
    },
    {
      "name": "Route 26",
      "description": "An unimaginably difficult mountain road that gives the impression of a test.",
      "connections": [
        {
          "region": "Kanto",
          "location": "Route 27",
          "direction": "w"
        },
        {
          "region": "Kanto",
          "location": "Pokémon League Front Gate",
          "direction": "a"
        }
      ]
    },
    {
      "name": "Route 27",
      "description": "A road that crosses from Johto to the Kanto region, like a new journey.",
      "connections": [
        {
          "region": "Kanto",
          "location": "Route 26",
          "direction": "e"
        },
        {
          "region": "Johto",
          "location": "New Bark Town",
          "direction": "w"
        },
        {
          "region": "Kanto",
          "location": "Tohjo Falls",
          "direction": "a"
        }
      ]
    },
    {
      "name": "Route 28",
      "description": "A vacant and hidden mountain road that continues to Mt. Silver.",
      "connections": [
        {
          "region": "Johto",
          "location": "Mt. Silver",
          "direction": "w"
        },
        {
          "region": "Kanto",
          "location": "Pokémon League Front Gate",
          "direction": "a"
        }
      ]
    },
    {
      "name": "Professor Oak's Laboratory",
      "description": "A Pokémon lab located in Pallet Town that is directed by Professor Samuel Oak.",
      "connections": [
        {
          "region": "Kanto",
          "location": "Pallet Town",
          "direction": "a"
        }
      ]
    },
    {
      "name": "Viridian Forest",
      "description": "A deep, shady forest filled with nature and Bug-type Pokémon.",
      "connections": [
        {
          "region": "Kanto",
          "location": "Route 2",
          "direction": "a"
        }
      ]
    },
    {
      "name": "Diglett's Cave",
      "description": "A tunnel dug by Diglett connecting Vermilion City to Pewter City.",
      "connections": [
        {
          "region": "Kanto",
          "location": "Route 2",
          "direction": "a"
        },
        {
          "region": "Kanto",
          "location": "Route 11",
          "direction": "a"
        }
      ]
    },
    {
      "name": "Pewter Museum of Science",
      "description": "The Pewter Museum of Science hosts a wide range of attractions and exhibits, largely based around space and Fossil exploration.",
      "connections": [
        {
          "region": "Kanto",
          "location": "Pewter City",
          "direction": "a"
        }
      ]
    },
    {
      "name": "Mt. Moon",
      "description": "A mountain where shooting stars are said to fall. It is apparently abundant with fossils.",
      "connections": [
        {
          "region": "Kanto",
          "location": "Route 4",
          "direction": "a"
        },
        {
          "region": "Kanto",
          "location": "Mt. Moon Square",
          "direction": "a"
        }
      ]
    },
    {
      "name": "Mt. Moon Square",
      "description": "Located in the heights of Mt. Moon is a small, square field where Clefairy are said to perform secret rituals.",
      "connections": [
        {
          "region": "Kanto",
          "location": "Mt. Moon",
          "direction": "a"
        }
      ]
    },
    {
      "name": "Cerulean Cave",
      "description": "A mysterious cave that is filled with terribly tough Pokémon. It is so dangerous, the Pokémon League is in charge of it.",
      "connections": [
        {
          "region": "Kanto",
          "location": "Cerulean City",
          "direction": "a"
        }
      ]
    },
    {
      "name": "Underground Path (Routes 5-6)",
      "description": "An underground path connecting Routes 5 and 6, located directly underneath Saffron City.",
      "connections": [
        {
          "region": "Kanto",
          "location": "Route 5",
          "direction": "a"
        },
        {
          "region": "Kanto",
          "location": "Route 6",
          "direction": "a"
        }
      ]
    },
    {
      "name": "Underground Path (Routes 7-8)",
      "description": "An underground path connecting Routes 7 and 8, located directly underneath Saffron City.",
      "connections": [
        {
          "region": "Kanto",
          "location": "Route 7",
          "direction": "a"
        },
        {
          "region": "Kanto",
          "location": "Route 8",
          "direction": "a"
        }
      ]
    },
    {
      "name": "S.S. Anne",
      "description": "A well-known luxury cruise liner which sails the world, stopping annually in Vermilion City, Kanto.",
      "connections": [
        {
          "region": "Kanto",
          "location": "Vermilion City",
          "direction": "f"
        }
      ]
    },
    {
      "name": "Sea Cottage",
      "description": "A small building located on Cerulean Cape and is home to Bill.",
      "connections": [
        {
          "region": "Kanto",
          "location": "Route 25",
          "direction": "a"
        }
      ]
    },
    {
      "name": "Rock Tunnel",
      "description": "A large natural tunnel. It's pitch black, so a light source is required.",
      "connections": [
        {
          "region": "Kanto",
          "location": "Route 10",
          "direction": "a"
        }
      ]
    },
    {
      "name": "Power Plant",
      "description": "A large natural tunnel. It's pitch black, so a light source is required.",
      "connections": [
        {
          "region": "Kanto",
          "location": "Route 10",
          "direction": "a"
        }
      ]
    },
    {
      "name": "Team Rocket Hideout",
      "description": "A secret base built and used by Team Rocket to facilitate and administer their operations.",
      "connections": [
        {
          "region": "Kanto",
          "location": "Celadon City",
          "direction": "a"
        }
      ]
    },
    {
      "name": "Silph Company",
      "description": "A company headquartered in Saffron City that manufacturers many tools, including home appliances.",
      "connections": [
        {
          "region": "Kanto",
          "location": "Saffron City",
          "direction": "a"
        }
      ]
    },
    {
      "name": "Pokémon Tower",
      "description": "A tower that houses the graves of countless Pokémon. Many people visit it daily to pay their respects to the fallen.",
      "connections": [
        {
          "region": "Kanto",
          "location": "Lavender Town",
          "direction": "a"
        }
      ]
    },
    {
      "name": "Safari Zone",
      "description": "An amusement park outside Fuchsia City where many rare Pokémon can be observed in the wild. Catch them in a popular game!",
      "connections": [
        {
          "region": "Kanto",
          "location": "Fuchsia City",
          "direction": "a"
        }
      ]
    },
    {
      "name": "Seafoam Islands",
      "description": "Two small islands lightly floating in the ocean. A shocking cold fills the caverns inside.",
      "connections": [
        {
          "region": "Kanto",
          "location": "Route 20",
          "direction": "a"
        }
      ]
    },
    {
      "name": "Pokémon Mansion",
      "description": "A decrepit, burned-down mansion on Cinnabar Island. It got its name because a famous Pokémon researcher lived there.",
      "connections": [
        {
          "region": "Kanto",
          "location": "Cinnabar Island",
          "direction": "a"
        }
      ]
    },
    {
      "name": "Cinnabar Lab",
      "description": "A facility on Cinnabar Island where scientists perform various research on Pokémon and fossils.",
      "connections": [
        {
          "region": "Kanto",
          "location": "Cinnabar Island",
          "direction": "a"
        }
      ]
    },
    {
      "name": "Pokémon League Front Gate",
      "description": "Serves as a Gym Badge checkpoint for both Kanto and Johto Trainers who want to participate in the Pokémon League.",
      "connections": [
        {
          "region": "Kanto",
          "location": "Route 22",
          "direction": "a"
        },
        {
          "region": "Kanto",
          "location": "Route 23",
          "direction": "a"
        },
        {
          "region": "Kanto",
          "location": "Route 26",
          "direction": "a"
        },
        {
          "region": "Kanto",
          "location": "Route 28",
          "direction": "a"
        }
      ]
    },
    {
      "name": "Victory Road",
      "description": "A cave that tests Trainers aiming to reach the Pokémon League at the summit.",
      "connections": [
        {
          "region": "Kanto",
          "location": "Route 23",
          "direction": "a"
        }
      ]
    },
    {
      "name": "Tohjo Falls",
      "description": "The Tohjo waterfall that links the Kanto and Johto regions.",
      "connections": [
        {
          "region": "Kanto",
          "location": "Route 27",
          "direction": "a"
        }
      ]
    },
    {
      "name": "One Island",
      "description": "This small town shares a name with the island it resides on. It is home to the Pokémon Network Center, which is run by Celio.",
      "connections": [
        {
          "region": "Kanto",
          "location": "Kindle Road",
          "direction": "e"
        },
        {
          "region": "Kanto",
          "location": "Treasure Beach",
          "direction": "s"
        }
      ]
    },
    {
      "name": "Two Island",
      "description": "This small town shares a name with the island it resides on. There is a small market that sells exotic goods from the Johto and Hoenn regions.",
      "connections": [
        {
          "region": "Kanto",
          "location": "Cape Brink",
          "direction": "e"
        }
      ]
    },
    {
      "name": "Three Island",
      "description": "This small town shares a name with the island it resides on. It is one of the most populous towns in the Sevii Islands.",
      "connections": [
        {
          "region": "Kanto",
          "location": "Bond Bridge",
          "direction": "w"
        },
        {
          "region": "Kanto",
          "location": "Three Isle Port",
          "direction": "s"
        }
      ]
    },
    {
      "name": "Four Island",
      "description": "This small town shares a name with the island it resides on. Lorelei of the Kantonian Elite Four comes from this town.",
      "connections": [
        {
          "region": "Kanto",
          "location": "Icefall Cave",
          "direction": "a"
        }
      ]
    },
    {
      "name": "Five Island",
      "description": "This small town shares a name with the island it resides on. Five Island is both the smallest town and smallest island in the Sevii Islands.",
      "connections": [
        {
          "region": "Kanto",
          "location": "Water Labyrinth",
          "direction": "n"
        },
        {
          "region": "Kanto",
          "location": "Five Isle Meadow",
          "direction": "e"
        }
      ]
    },
    {
      "name": "Six Island",
      "description": "This small town shares a name with the island it resides on. Many say that the view of the stars over Six Island is amazing.",
      "connections": [
        {
          "region": "Kanto",
          "location": "Water Path",
          "direction": "e"
        }
      ]
    },
    {
      "name": "Seven Island",
      "description": "This small town shares a name with the island it resides on. Seven Island is the southernmost town in the Sevii Islands, farthest away from mainland Kanto.",
      "connections": [
        {
          "region": "Kanto",
          "location": "Trainer Tower",
          "direction": "n"
        },
        {
          "region": "Kanto",
          "location": "Canyon Entrance",
          "direction": "s"
        }
      ]
    },
    {
      "name": "Treasure Beach",
      "description": "A beach south of One Island. Many lost or discarded treasures are found here washed upon the shore.",
      "connections": [
        {
          "region": "Kanto",
          "location": "One Island",
          "direction": "n"
        }
      ]
    },
    {
      "name": "Kindle Road",
      "description": "Kindle Road is home to the Ember Spa. The spa is a hot spring where Trainers can relax and heal their Pokémon, and it is said to keep one's face smooth despite their age.",
      "connections": [
        {
          "region": "Kanto",
          "location": "Mt. Ember",
          "direction": "n"
        },
        {
          "region": "Kanto",
          "location": "One Island",
          "direction": "w"
        }
      ]
    },
    {
      "name": "Cape Brink",
      "description": "A brink on the north end of Two Island, home to an expert on Pokémon moves.",
      "connections": [
        {
          "region": "Kanto",
          "location": "Two Island",
          "direction": "s"
        }
      ]
    },
    {
      "name": "Bond Bridge",
      "description": "A small bridge that connects Three Island to Berry Forest.",
      "connections": [
        {
          "region": "Kanto",
          "location": "Three Island",
          "direction": "e"
        },
        {
          "region": "Kanto",
          "location": "Berry Forest",
          "direction": "w"
        }
      ]
    },
    {
      "name": "Three Isle Port",
      "description": "Three Isle Port allows ships and ferries to dock on Three Island. There is a small cave which leads to a Dunsparce nest.",
      "connections": [
        {
          "region": "Kanto",
          "location": "Three Island",
          "direction": "n"
        },
        {
          "region": "Kanto",
          "location": "Three Isle Path",
          "direction": "a"
        }
      ]
    },
    {
      "name": "Three Isle Path",
      "description": "A small cave connecting the Three Isle Port to a Dunsparce nest.",
      "connections": [
        {
          "region": "Kanto",
          "location": "Three Isle Port",
          "direction": "a"
        }
      ]
    },
    {
      "name": "Resort Gorgeous",
      "description": "A remote island not far from Five Island, home to a resort with the same name.",
      "connections": [
        {
          "region": "Kanto",
          "location": "Lost Cave",
          "direction": "e"
        },
        {
          "region": "Kanto",
          "location": "Water Labyrinth",
          "direction": "s"
        },
        {
          "region": "Kanto",
          "location": "Lost Cave",
          "direction": "a"
        }
      ]
    },
    {
      "name": "Water Labyrinth",
      "description": "A rocky maze over the sea, north of Five Island.",
      "connections": [
        {
          "region": "Kanto",
          "location": "Resort Gorgeous",
          "direction": "n"
        },
        {
          "region": "Kanto",
          "location": "Five Island",
          "direction": "s"
        }
      ]
    },
    {
      "name": "Five Isle Meadow",
      "description": "A peaceful meadow on the coast of Five Island. A suspicious warehouse can be found here.",
      "connections": [
        {
          "region": "Kanto",
          "location": "Memorial Pillar",
          "direction": "e"
        },
        {
          "region": "Kanto",
          "location": "Five Island",
          "direction": "w"
        },
        {
          "region": "Kanto",
          "location": "Rocket Warehouse",
          "direction": "a"
        }
      ]
    },
    {
      "name": "Memorial Pillar",
      "description": "A set of two small islands. The south island serves as a grave site to an Onix that was loved immensely by its Trainer.",
      "connections": [
        {
          "region": "Kanto",
          "location": "Five Isle Meadow",
          "direction": "w"
        }
      ]
    },
    {
      "name": "Outcast Island",
      "description": "An island far from the coast of Six Island, which contains an unusual cave.",
      "connections": [
        {
          "region": "Kanto",
          "location": "Green Path",
          "direction": "s"
        },
        {
          "region": "Kanto",
          "location": "Altering Cave",
          "direction": "a"
        }
      ]
    },
    {
      "name": "Green Path",
      "description": "Two small islands and Pattern Bush are all that is here, as well as a sign advocating environmental friendliness.",
      "connections": [
        {
          "region": "Kanto",
          "location": "Outcast Island",
          "direction": "n"
        },
        {
          "region": "Kanto",
          "location": "Water Path",
          "direction": "e"
        },
        {
          "region": "Kanto",
          "location": "Pattern Bush",
          "direction": "a"
        }
      ]
    },
    {
      "name": "Water Path",
      "description": "A coastal promenade where a Heracross enthusiast can be found.",
      "connections": [
        {
          "region": "Kanto",
          "location": "Green Path",
          "direction": "n"
        },
        {
          "region": "Kanto",
          "location": "Six Island",
          "direction": "e"
        },
        {
          "region": "Kanto",
          "location": "Ruin Valley",
          "direction": "s"
        },
        {
          "region": "Kanto",
          "location": "Dotted Hole",
          "direction": "a"
        }
      ]
    },
    {
      "name": "Ruin Valley",
      "description": "This area of Six Island is fairly mountainous and many hikers can be found exploring this area. In the center of the valley is the Dotted Hole.",
      "connections": [
        {
          "region": "Kanto",
          "location": "Water Path",
          "direction": "e"
        }
      ]
    },
    {
      "name": "Trainer Tower",
      "description": "A tower where Trainers can be challenged in a variety of different battle types consecutively over a number of floors to reach the top.",
      "connections": [
        {
          "region": "Kanto",
          "location": "Seven Island",
          "direction": "s"
        }
      ]
    },
    {
      "name": "Canyon Entrance",
      "description": "A small area between the town of Seven Island and Sevault Canyon, serving as a transition between the city and the canyon's rugged landscape.",
      "connections": [
        {
          "region": "Kanto",
          "location": "Seven Island",
          "direction": "n"
        },
        {
          "region": "Kanto",
          "location": "Sevault Canyon",
          "direction": "e"
        }
      ]
    },
    {
      "name": "Sevault Canyon",
      "description": "As a narrow valley, wedged between the sea, Sevault Canyon has a mix of grassy patches and rugged, arid land. The canyon seems to serve as a training ground for elite Trainers.",
      "connections": [
        {
          "region": "Kanto",
          "location": "Canyon Entrance",
          "direction": "w"
        },
        {
          "region": "Kanto",
          "location": "Tanoby Ruins",
          "direction": "s"
        }
      ]
    },
    {
      "name": "Tanoby Ruins",
      "description": "A collection of seven islands that each contain a ruin. These Ruins have been around for over 1,500 years for reasons unknown.",
      "connections": [
        {
          "region": "Kanto",
          "location": "Sevault Canyon",
          "direction": "n"
        },
        {
          "region": "Kanto",
          "location": "Monean Chamber",
          "direction": "a"
        },
        {
          "region": "Kanto",
          "location": "Liptoo Chamber",
          "direction": "a"
        },
        {
          "region": "Kanto",
          "location": "Weepth Chamber",
          "direction": "a"
        },
        {
          "region": "Kanto",
          "location": "Dilford Chamber",
          "direction": "a"
        },
        {
          "region": "Kanto",
          "location": "Scufib Chamber",
          "direction": "a"
        },
        {
          "region": "Kanto",
          "location": "Rixy Chamber",
          "direction": "a"
        },
        {
          "region": "Kanto",
          "location": "Viapois Chamber",
          "direction": "a"
        }
      ]
    },
    {
      "name": "Mt. Ember",
      "description": "Supposedly an inactive volcano. However, there are persistent reports that the peak blazes with fire at night.",
      "connections": [
        {
          "region": "Kanto",
          "location": "Kindle Road",
          "direction": "s"
        }
      ]
    },
    {
      "name": "Berry Forest",
      "description": "A forest on a small islet off the coast of Three Island. Berries grow wildly in profusion, quickly replenishing those that fall off.",
      "connections": [
        {
          "region": "Kanto",
          "location": "Bond Bridge",
          "direction": "s"
        }
      ]
    },
    {
      "name": "Icefall Cave",
      "description": "A cave which is covered by water and ice on Four Island. It seems like the end of the cave is connected to the ocean.",
      "connections": [
        {
          "region": "Kanto",
          "location": "Four Island",
          "direction": "a"
        }
      ]
    },
    {
      "name": "Rocket Warehouse",
      "description": "A suspicious warehouse found in the Five Isle Meadow. Reports suggest this warehouse is used by Team Rocket.",
      "connections": [
        {
          "region": "Kanto",
          "location": "Five Isle Meadow",
          "direction": "a"
        }
      ]
    },
    {
      "name": "Lost Cave",
      "description": "A bewildering cave off the coast of Resort Gorgeous. Some curious thrill seekers have never emerged from it.",
      "connections": [
        {
          "region": "Kanto",
          "location": "Resort Gorgeous",
          "direction": "a"
        }
      ]
    },
    {
      "name": "Altering Cave",
      "description": "This island has been known by this name since the distant past. No one today knows where it got this name, however.",
      "connections": [
        {
          "region": "Kanto",
          "location": "Outcast Island",
          "direction": "a"
        }
      ]
    },
    {
      "name": "Pattern Bush",
      "description": "A lush and bush-like area. In it are patterns where no grass grows. Some study it in the belief that a secret is concealed.",
      "connections": [
        {
          "region": "Kanto",
          "location": "Green Path",
          "direction": "a"
        }
      ]
    },
    {
      "name": "Dotted Hole",
      "description": "A mysterious, just-discovered ruin from an ancient time. It got its name from the six dots on its door.",
      "connections": [
        {
          "region": "Kanto",
          "location": "Ruin Valley",
          "direction": "a"
        }
      ]
    },
    {
      "name": "Tanoby Key",
      "description": "A small cave on the middle western part of Sevault Canyon. Inside the cave are various boulders and holes that appear to form a puzzle.",
      "connections": [
        {
          "region": "Kanto",
          "location": "Sevault Canyon",
          "direction": "a"
        }
      ]
    },
    {
      "name": "Monean Chamber",
      "description": "An ancient ruin that is rumored to be home to a peculiar Pokémon. However, so far, the Pokémon remains an unconfirmed rumor.",
      "connections": [
        {
          "region": "Kanto",
          "location": "Tanoby Ruins",
          "direction": "a"
        }
      ]
    },
    {
      "name": "Liptoo Chamber",
      "description": "An ancient ruin that is rumored to be home to a peculiar Pokémon. However, so far, the Pokémon remains an unconfirmed rumor.",
      "connections": [
        {
          "region": "Kanto",
          "location": "Tanoby Ruins",
          "direction": "a"
        }
      ]
    },
    {
      "name": "Weepth Chamber",
      "description": "An ancient ruin that is rumored to be home to a peculiar Pokémon. However, so far, the Pokémon remains an unconfirmed rumor.",
      "connections": [
        {
          "region": "Kanto",
          "location": "Tanoby Ruins",
          "direction": "a"
        }
      ]
    },
    {
      "name": "Dilford Chamber",
      "description": "An ancient ruin that is rumored to be home to a peculiar Pokémon. However, so far, the Pokémon remains an unconfirmed rumor.",
      "connections": [
        {
          "region": "Kanto",
          "location": "Tanoby Ruins",
          "direction": "a"
        }
      ]
    },
    {
      "name": "Scufib Chamber",
      "description": "An ancient ruin that is rumored to be home to a peculiar Pokémon. However, so far, the Pokémon remains an unconfirmed rumor.",
      "connections": [
        {
          "region": "Kanto",
          "location": "Tanoby Ruins",
          "direction": "a"
        }
      ]
    },
    {
      "name": "Rixy Chamber",
      "description": "An ancient ruin that is rumored to be home to a peculiar Pokémon. However, so far, the Pokémon remains an unconfirmed rumor.",
      "connections": [
        {
          "region": "Kanto",
          "location": "Tanoby Ruins",
          "direction": "a"
        }
      ]
    },
    {
      "name": "Viapois Chamber",
      "description": "An ancient ruin that is rumored to be home to a peculiar Pokémon. However, so far, the Pokémon remains an unconfirmed rumor.",
      "connections": [
        {
          "region": "Kanto",
          "location": "Tanoby Ruins",
          "direction": "a"
        }
      ]
    },
    {
      "name": "Navel Rock",
      "description": "An island between Four and Five Islands in the Sevii Islands. Ho-Oh and Lugia are rumored to rest here."
    },
    {
      "name": "Birth Island",
      "description": "An island near Six and Seven Islands in the Sevii Islands. A strange triangle can be found on this island, believed to have ties with space."
    }
  ]
}