{
  "name": "Sinnoh",
  "starterPokemon": [
    "Turtwig",
    "Chimchar",
    "Piplup"
  ],
  "startingLocation": "Twinleaf Town",
  "professor": "Rowan",
  "locations": [
    {
      "name": "Twinleaf Town",
      "description": "A small town with the fresh scent of new leaves in the air. It feels like a place where adventures start. Your own home and your best friend's house are located here.",
      "connections": [
        {
          "region": "Sinnoh",
          "location": "Route 201",
          "direction": "n"
        }
      ]
    },
    {
      "name": "Sandgem Town",
      "description": "A sandy town that is located right next to a beach. It is redolent with the salty scent of the sea. Prof. Rowan's lab is the town's landmark. He conducts his studies on Pokémon here.",
      "connections": [
        {
          "region": "Sinnoh",
          "location": "Route 202",
          "direction": "n"
        },
        {
          "region": "Sinnoh",
          "location": "Route 201",
          "direction": "w"
        },
        {
          "region": "Sinnoh",
          "location": "Route 219",
          "direction": "s"
        }
      ]
    },
    {
      "name": "Jubilife City",
      "description": "The most modernized city in the Sinnoh region. It is bustling with people on the go.",
      "connections": [
        {
          "region": "Sinnoh",
          "location": "Route 204",
          "direction": "n"
        },
        {
          "region": "Sinnoh",
          "location": "Route 203",
          "direction": "e"
        },
        {
          "region": "Sinnoh",
          "location": "Route 218",
          "direction": "w"
        },
        {
          "region": "Sinnoh",
          "location": "Route 202",
          "direction": "s"
        },
        {
          "region": "Sinnoh",
          "location": "Global Terminal",
          "direction": "a"
        }
      ]
    },
    {
      "name": "Oreburgh City",
      "description": "A vibrant and energetic mining town that is blessed with a precious natural resource. There is a Gym where mine workers take breaks in between their exhausting work shifts. Huge deposits of coal still sleep underneath the ground. The entrance to the Oreburgh Mine is here.",
      "connections": [
        {
          "region": "Sinnoh",
          "location": "Route 207",
          "direction": "n"
        },
        {
          "region": "Sinnoh",
          "location": "Oreburgh Gate",
          "direction": "a"
        },
        {
          "region": "Sinnoh",
          "location": "Oreburgh Mine",
          "direction": "a"
        },
        {
          "region": "Sinnoh",
          "location": "Oreburgh Mining Museum",
          "direction": "a"
        }
      ]
    },
    {
      "name": "Floaroma Town",
      "description": "A town of flower lovers, Floaroma Town is always perfumed with the sweet scent of flowers. A short, floral pathway opens up to a sprawling sea of flowers in bloom. In the center of town is the flower shop called Pick a Peck of Colors.",
      "connections": [
        {
          "region": "Sinnoh",
          "location": "Route 205",
          "direction": "e"
        },
        {
          "region": "Sinnoh",
          "location": "Route 204",
          "direction": "s"
        },
        {
          "region": "Sinnoh",
          "location": "Fuego Ironworks",
          "direction": "a"
        },
        {
          "region": "Sinnoh",
          "location": "Floaroma Meadow",
          "direction": "a"
        }
      ]
    },
    {
      "name": "Eterna City",
      "description": "An old city that shows fading and almost-forgotten vestiges of ancient history. A Gym is indispensable in any town that has many people coming and going. This city is no exception. The Cycle Shop is located here. There is also a big building with a slightly sinister atmosphere. A statue of an ancient Pokémon is prominently and reverently displayed.",
      "connections": [
        {
          "region": "Sinnoh",
          "location": "Route 211",
          "direction": "e"
        },
        {
          "region": "Sinnoh",
          "location": "Route 205",
          "direction": "w"
        },
        {
          "region": "Sinnoh",
          "location": "Route 206",
          "direction": "s"
        }
      ]
    },
    {
      "name": "Hearthome City",
      "description": "This friendly city started as a place where people and Pokémon gathered, then grew into a center of commerce. If you care about the looks of your Pokémon, head for the Contest Hall. For toughness, go to the Gym. The entrance to Amity Square is here. The square is a place where Trainers can stroll peacefully with Pokémon. There is a building here that is symbolic of the city's status as a place where different cultures meet. A nice fountain with benches, as well as the Pokémon Fan Club, are among the city's amenities.",
      "connections": [
        {
          "region": "Sinnoh",
          "location": "Route 209",
          "direction": "e"
        },
        {
          "region": "Sinnoh",
          "location": "Route 208",
          "direction": "w"
        },
        {
          "region": "Sinnoh",
          "location": "Route 212",
          "direction": "s"
        },
        {
          "region": "Sinnoh",
          "location": "Amity Square",
          "direction": "a"
        }
      ]
    },
    {
      "name": "Solaceon Town",
      "description": "The temperate climate makes this town a relaxed and casual place for people and Pokémon to live in. There is a Pokémon Day Care and a Pokémon Center here. Beyond a path hemmed by stands of trees, one can find the entrance to the Solaceon Ruins.",
      "connections": [
        {
          "region": "Sinnoh",
          "location": "Route 210",
          "direction": "n"
        },
        {
          "region": "Sinnoh",
          "location": "Route 209",
          "direction": "s"
        },
        {
          "region": "Sinnoh",
          "location": "Solaceon Ruins",
          "direction": "a"
        }
      ]
    },
    {
      "name": "Veilstone City",
      "description": "This city was made by carving out steep, rocky mountains. Its isolation limits its contact with other cities. The city puts effort into providing entertainment. Naturally, one can find a Gym here. Conveniently located right next door to the Game Corner is the Prize Exchange. At the highest point in the city is Team Galactic's headquarters. There are warehouses for storing a variety of goods. There is also a major department store.",
      "connections": [
        {
          "region": "Sinnoh",
          "location": "Route 215",
          "direction": "w"
        },
        {
          "region": "Sinnoh",
          "location": "Route 214",
          "direction": "s"
        }
      ]
    },
    {
      "name": "Pastoria City",
      "description": "This city was originally founded to protect the Great Marsh. It has grown naturally over the years. The Gym is a good example of the abundant water resources available to the city. There is a lookout that affords views of the Great Marsh. The gates to the Safari Zone are also here.",
      "connections": [
        {
          "region": "Sinnoh",
          "location": "Route 213",
          "direction": "e"
        },
        {
          "region": "Sinnoh",
          "location": "Route 212",
          "direction": "w"
        },
        {
          "region": "Sinnoh",
          "location": "Great Marsh",
          "direction": "a"
        }
      ]
    },
    {
      "name": "Celestic Town",
      "description": "A tiny town that preserves the history of Sinnoh and the old ways of life. In the center of the town is a small shrine that dates to ancient times.",
      "connections": [
        {
          "region": "Sinnoh",
          "location": "Route 210",
          "direction": "e"
        },
        {
          "region": "Sinnoh",
          "location": "Route 211",
          "direction": "w"
        }
      ]
    },
    {
      "name": "Canalave City",
      "description": "A port city that is bisected by a canal. It has a distinctly exotic air of foreign culture. Head to the library if you want a workout for the mind. Head to the Gym if you just want to work out. Large ships can always be seen moored at the town's piers.",
      "connections": [
        {
          "region": "Sinnoh",
          "location": "Route 218",
          "direction": "e"
        },
        {
          "region": "Sinnoh",
          "location": "Iron Island",
          "direction": "f"
        },
        {
          "region": "Sinnoh",
          "location": "Fullmoon Island",
          "direction": "f"
        },
        {
          "region": "Sinnoh",
          "location": "Newmoon Island",
          "direction": "f"
        }
      ]
    },
    {
      "name": "Snowpoint City",
      "description": "A winter wonderland of a city where stout trees and buildings are blanketed in thick snow. The Gym is at the heart of the city. To the north is the Snowpoint Temple.",
      "connections": [
        {
          "region": "Sinnoh",
          "location": "Snowpoint Temple",
          "direction": "a"
        },
        {
          "region": "Sinnoh",
          "location": "Acuity Lakefront",
          "direction": "a"
        },
        {
          "region": "Sinnoh",
          "location": "Fight Area",
          "direction": "f"
        }
      ]
    },
    {
      "name": "Sunyshore City",
      "description": "A port city that was built around the bay portion of the cape. It is criss-crossed by elevated walkways. The Gym is located atop a rocky outcropping. Down on the beach is a festive bazaar. The Vista Lighthouse's bright beacon illuminates the Sinnoh region.",
      "connections": [
        {
          "region": "Sinnoh",
          "location": "Route 223",
          "direction": "n"
        },
        {
          "region": "Sinnoh",
          "location": "Route 222",
          "direction": "w"
        }
      ]
    },
    {
      "name": "Pokémon League",
      "description": "Trainers seeking to be the best arrive here after a long and grueling journey. The Pokémon League reception counter is located here. Only those who have beaten all the Gyms may enter.",
      "connections": [
        {
          "region": "Sinnoh",
          "location": "Route 223",
          "direction": "e"
        },
        {
          "region": "Sinnoh",
          "location": "Victory Road",
          "direction": "a"
        }
      ]
    },
    {
      "name": "Fight Area",
      "description": "A tiny port city where Trainers who love battling more than eating gather. The gateway to the Battle Frontier is located here. Moored at the pier is the ferry to Snowpoint City.",
      "connections": [
        {
          "region": "Sinnoh",
          "location": "Route 225",
          "direction": "n"
        },
        {
          "region": "Sinnoh",
          "location": "Route 230",
          "direction": "e"
        },
        {
          "region": "Sinnoh",
          "location": "Battle Frontier",
          "direction": "a"
        },
        {
          "region": "Sinnoh",
          "location": "Snowpoint City",
          "direction": "f"
        }
      ]
    },
    {
      "name": "Survival Area",
      "description": "A town where hot-blooded Trainers gather to work out and hone their battling skills.",
      "connections": [
        {
          "region": "Sinnoh",
          "location": "Route 226",
          "direction": "e"
        },
        {
          "region": "Sinnoh",
          "location": "Route 225",
          "direction": "w"
        }
      ]
    },
    {
      "name": "Resort Area",
      "description": "A town that attracts Trainers who know there are other ways of enjoying Pokémon than battling.",
      "connections": [
        {
          "region": "Sinnoh",
          "location": "Route 229",
          "direction": "e"
        }
      ]
    },
    {
      "name": "Route 201",
      "description": "A small path through a lush, green, wooded area. The densely grown trees give off a thick aroma.",
      "connections": [
        {
          "region": "Sinnoh",
          "location": "Sandgem Town",
          "direction": "e"
        },
        {
          "region": "Sinnoh",
          "location": "Twinleaf Town",
          "direction": "s"
        },
        {
          "region": "Sinnoh",
          "location": "Verity Lakefront",
          "direction": "a"
        }
      ]
    },
    {
      "name": "Route 202",
      "description": "A winding path that twists through grassy fields. Young Trainers like to test their battle skills here.",
      "connections": [
        {
          "region": "Sinnoh",
          "location": "Jubilife City",
          "direction": "n"
        },
        {
          "region": "Sinnoh",
          "location": "Sandgem Town",
          "direction": "s"
        }
      ]
    },
    {
      "name": "Route 203",
      "description": "Despite being so close to a big town, this path retains its relaxed, natural atmosphere. Once one gets through the tunnel, the city of Oreburgh is just a stone's throw away.",
      "connections": [
        {
          "region": "Sinnoh",
          "location": "Jubilife City",
          "direction": "w"
        },
        {
          "region": "Sinnoh",
          "location": "Oreburgh Gate",
          "direction": "a"
        }
      ]
    },
    {
      "name": "Route 204",
      "description": "A charming natural path that wanders past many ponds and groves of trees. The Ravaged Path was hewn through a rocky outcropping. It is a shortcut that leads straight to Floaroma Town.",
      "connections": [
        {
          "region": "Sinnoh",
          "location": "Floaroma Town",
          "direction": "n"
        },
        {
          "region": "Sinnoh",
          "location": "Jubilife City",
          "direction": "s"
        },
        {
          "region": "Sinnoh",
          "location": "Ravaged Path",
          "direction": "a"
        }
      ]
    },
    {
      "name": "Route 205",
      "description": "A quietly following stream and hilly terrain with one-way ledges make this a fun area for adventure. Near the entrance of the Eterna Forest is a cabin whose keepers offer rest to weary travelers that stop by. A wide, wooden walkway spans a large pond. Fishermen idle their time away dangling lines from the walkway.",
      "connections": [
        {
          "region": "Sinnoh",
          "location": "Eterna City",
          "direction": "e"
        },
        {
          "region": "Sinnoh",
          "location": "Floaroma Town",
          "direction": "w"
        },
        {
          "region": "Sinnoh",
          "location": "Eterna Forest",
          "direction": "a"
        },
        {
          "region": "Sinnoh",
          "location": "Valley Windworks",
          "direction": "a"
        },
        {
          "region": "Sinnoh",
          "location": "Fuego Ironworks",
          "direction": "a"
        }
      ]
    },
    {
      "name": "Route 206",
      "description": "Smoothly paved in asphalt, the Cycling Road is heavenly for bicycle lovers. Below the Cycling Road, one can see the entrance to Wayward Cave.",
      "connections": [
        {
          "region": "Sinnoh",
          "location": "Eterna City",
          "direction": "n"
        },
        {
          "region": "Sinnoh",
          "location": "Route 207",
          "direction": "s"
        },
        {
          "region": "Sinnoh",
          "location": "Wayward Cave",
          "direction": "a"
        }
      ]
    },
    {
      "name": "Route 207",
      "description": "Located at the foot of Mt. Coronet, this road is carved into the rugged, rocky terrain.",
      "connections": [
        {
          "region": "Sinnoh",
          "location": "Route 206",
          "direction": "n"
        },
        {
          "region": "Sinnoh",
          "location": "Oreburgh City",
          "direction": "s"
        },
        {
          "region": "Sinnoh",
          "location": "Mt. Coronet",
          "direction": "a"
        }
      ]
    },
    {
      "name": "Route 208",
      "description": "A lush field of grass spreads from Mt. Coronet's sheer rock face, creating a vista of contrasts. The Berry Master, an old man who loves nature, Pokémon, and Berries, makes his home here.",
      "connections": [
        {
          "region": "Sinnoh",
          "location": "Hearthome City",
          "direction": "e"
        },
        {
          "region": "Sinnoh",
          "location": "Mt. Coronet",
          "direction": "a"
        }
      ]
    },
    {
      "name": "Route 209",
      "description": "The streams forded by this path wind past copses and grassy patches in a serene and soothing manner. The Lost Tower is where Pokémon are laid to rest when their lives come to an end.",
      "connections": [
        {
          "region": "Sinnoh",
          "location": "Solaceon Town",
          "direction": "n"
        },
        {
          "region": "Sinnoh",
          "location": "Hearthome City",
          "direction": "w"
        },
        {
          "region": "Sinnoh",
          "location": "Lost Tower",
          "direction": "a"
        },
        {
          "region": "Sinnoh",
          "location": "Hallowed Tower",
          "direction": "a"
        }
      ]
    },
    {
      "name": "Route 210",
      "description": "This narrow route is lined with deep, tall grass that tickles the noses of people straying off the path. The Cafe Cabin stands in a wood. The house special is freshly milked Moomoo Milk. A canyon covered by untamed fog. It is always shrouded by a dense fog.",
      "connections": [
        {
          "region": "Sinnoh",
          "location": "Route 215",
          "direction": "e"
        },
        {
          "region": "Sinnoh",
          "location": "Celestic Town",
          "direction": "w"
        },
        {
          "region": "Sinnoh",
          "location": "Solaceon Town",
          "direction": "s"
        }
      ]
    },
    {
      "name": "Route 211",
      "description": "A mountain path that tunnels through Mt. Coronet, one of the tallest mountains in Sinnoh.",
      "connections": [
        {
          "region": "Sinnoh",
          "location": "Celestic Town",
          "direction": "e"
        },
        {
          "region": "Sinnoh",
          "location": "Eterna City",
          "direction": "w"
        },
        {
          "region": "Sinnoh",
          "location": "Mt. Coronet",
          "direction": "s"
        }
      ]
    },
    {
      "name": "Route 212",
      "description": "A tall, sturdy wall surrounds an expansive estate that takes up nearly half of the road space. Beyond the wall, one can see the stately Pokémon Mansion and the owner's prized garden behind it. This path weaves among deep puddles made by the unending rainfall. It is wet and miserable for Trainers.",
      "connections": [
        {
          "region": "Sinnoh",
          "location": "Hearthome City",
          "direction": "n"
        },
        {
          "region": "Sinnoh",
          "location": "Pastoria City",
          "direction": "e"
        },
        {
          "region": "Sinnoh",
          "location": "Pokémon Mansion",
          "direction": "a"
        }
      ]
    },
    {
      "name": "Route 213",
      "description": "Offshore boulders form a jetty that becalms waves reaching the beach. A resort hotel overlooks the water. In a small house on the beach lives a single man who refers to himself as Dr. Footstep.",
      "connections": [
        {
          "region": "Sinnoh",
          "location": "Pastoria City",
          "direction": "w"
        },
        {
          "region": "Sinnoh",
          "location": "Valor Lakefront",
          "direction": "a"
        }
      ]
    },
    {
      "name": "Route 214",
      "description": "The road joining Veilstone City and a lake is described as either \"wildly natural\" or simply \"a mess.\" There is a cave hewn into the sheer rock wall at the roadside. The hole was made by a Ruin Maniac.",
      "connections": [
        {
          "region": "Sinnoh",
          "location": "Veilstone City",
          "direction": "n"
        },
        {
          "region": "Sinnoh",
          "location": "Spring Path",
          "direction": "a"
        },
        {
          "region": "Sinnoh",
          "location": "Valor Lakefront",
          "direction": "a"
        },
        {
          "region": "Sinnoh",
          "location": "Maniac Tunnel",
          "direction": "a"
        }
      ]
    },
    {
      "name": "Route 215",
      "description": "This area is always inundated by heavy rainfall. Only hardy Trainers that can take the rain gather here.",
      "connections": [
        {
          "region": "Sinnoh",
          "location": "Veilstone City",
          "direction": "e"
        },
        {
          "region": "Sinnoh",
          "location": "Route 210",
          "direction": "w"
        }
      ]
    },
    {
      "name": "Route 216",
      "description": "This mountainous road leads from Mt. Coronet. Its constant snowfall and deep snowdrifts impede travelers.",
      "connections": [
        {
          "region": "Sinnoh",
          "location": "Route 217",
          "direction": "n"
        },
        {
          "region": "Sinnoh",
          "location": "Mt. Coronet",
          "direction": "a"
        }
      ]
    },
    {
      "name": "Route 217",
      "description": "Snow blows down from Mt. Coronet and grows into a harsh, ceaseless blizzard. Be prepared for the worst.",
      "connections": [
        {
          "region": "Sinnoh",
          "location": "Route 216",
          "direction": "n"
        },
        {
          "region": "Sinnoh",
          "location": "Acuity Lakefront",
          "direction": "a"
        }
      ]
    },
    {
      "name": "Route 218",
      "description": "Despite its shortness, this road is revered by fishing enthusiasts as a great, yet little known, fishing spot.",
      "connections": [
        {
          "region": "Sinnoh",
          "location": "Jubilife City",
          "direction": "e"
        },
        {
          "region": "Sinnoh",
          "location": "Canalave City",
          "direction": "w"
        }
      ]
    },
    {
      "name": "Route 219",
      "description": "A beautiful white-sand beach only five seconds on foot from Sandgem Town. A pleasant breeze flows from the sea.",
      "connections": [
        {
          "region": "Sinnoh",
          "location": "Sandgem Town",
          "direction": "n"
        },
        {
          "region": "Sinnoh",
          "location": "Route 220",
          "direction": "s"
        }
      ]
    },
    {
      "name": "Route 220",
      "description": "The sea here is perfect for swimming, with gentle winds and tides. There are sandbars for resting too.",
      "connections": [
        {
          "region": "Sinnoh",
          "location": "Route 219",
          "direction": "n"
        },
        {
          "region": "Sinnoh",
          "location": "Route 221",
          "direction": "e"
        }
      ]
    },
    {
      "name": "Route 221",
      "description": "A straight path hemmed by green grass and sparse stands of trees. At the end of the path stands the gateway to Pal Park.",
      "connections": [
        {
          "region": "Sinnoh",
          "location": "Route 220",
          "direction": "w"
        }
      ]
    },
    {
      "name": "Route 222",
      "description": "A sandy beach extends from the road. The beach is busy with avid Fishermen happily casting at the water's edge. A man who loves fishing lives near here. There is also a man who will compare sizes of caught fish.",
      "connections": [
        {
          "region": "Sinnoh",
          "location": "Sunyshore City",
          "direction": "e"
        },
        {
          "region": "Sinnoh",
          "location": "Valor Lakefront",
          "direction": "a"
        }
      ]
    },
    {
      "name": "Route 223",
      "description": "A marine route that requires travelers to navigate around jutting rocks and sandbars.",
      "connections": [
        {
          "region": "Sinnoh",
          "location": "Pokémon League",
          "direction": "n"
        },
        {
          "region": "Sinnoh",
          "location": "Sunyshore City",
          "direction": "s"
        }
      ]
    },
    {
      "name": "Route 224",
      "description": "With grass fields, rocky outcroppings, the sea, and sandbars, this area is like a miniature of the Sinnoh Region.",
      "connections": [
        {
          "region": "Sinnoh",
          "location": "Seabreak Path",
          "direction": "a"
        },
        {
          "region": "Sinnoh",
          "location": "Victory Road",
          "direction": "a"
        }
      ]
    },
    {
      "name": "Route 225",
      "description": "The path makes its way up and down among rocky outcroppings. It is physically challenging.",
      "connections": [
        {
          "region": "Sinnoh",
          "location": "Survival Area",
          "direction": "e"
        },
        {
          "region": "Sinnoh",
          "location": "Fight Area",
          "direction": "s"
        }
      ]
    },
    {
      "name": "Route 226",
      "description": "A path that winds precariously along sheer cliffs that go right to the edge of the sea's pounding waves. There is a small island in the bay. An odd man who speaks foreign languages lives there.",
      "connections": [
        {
          "region": "Sinnoh",
          "location": "Route 227",
          "direction": "n"
        },
        {
          "region": "Sinnoh",
          "location": "Route 228",
          "direction": "e"
        },
        {
          "region": "Sinnoh",
          "location": "Survival Area",
          "direction": "w"
        }
      ]
    },
    {
      "name": "Route 228",
      "description": "This rough path is harshly raked by a horizontally blowing sandstorm driven by strong winds off the sea.",
      "connections": [
        {
          "region": "Sinnoh",
          "location": "Route 226",
          "direction": "w"
        },
        {
          "region": "Sinnoh",
          "location": "Route 229",
          "direction": "s"
        }
      ]
    },
    {
      "name": "Route 229",
      "description": "A seaside path that makes its way through wildly growing trees and plants.",
      "connections": [
        {
          "region": "Sinnoh",
          "location": "Route 228",
          "direction": "n"
        },
        {
          "region": "Sinnoh",
          "location": "Route 230",
          "direction": "w"
        },
        {
          "region": "Sinnoh",
          "location": "Resort Area",
          "direction": "s"
        }
      ]
    },
    {
      "name": "Route 230",
      "description": "A sea route that stretches from west to east. There is an island that is rich with plant life along the way.",
      "connections": [
        {
          "region": "Sinnoh",
          "location": "Route 229",
          "direction": "e"
        },
        {
          "region": "Sinnoh",
          "location": "Fight Area",
          "direction": "w"
        }
      ]
    },
    {
      "name": "Lake Verity",
      "description": "One of the lakes that is symbolic of the water-rich Sinnoh region. There is an odd legend associated with it. It is possible to enter the cave underneath the lake from the island in the middle.",
      "connections": [
        {
          "region": "Sinnoh",
          "location": "Verity Lakefront",
          "direction": "a"
        }
      ]
    },
    {
      "name": "Verity Lakefront",
      "description": "One of the lakes that is symbolic of the water-rich Sinnoh Region. There is an odd legend associated with it. It is possible to enter the cave underneath the lake from the island in the middle.",
      "connections": [
        {
          "region": "Sinnoh",
          "location": "Lake Verity",
          "direction": "a"
        },
        {
          "region": "Sinnoh",
          "location": "Route 201",
          "direction": "a"
        }
      ]
    },
    {
      "name": "Verity Lakefront",
      "description": "Once one gets through the tunnel, the city of Oreburgh is just a stone's throw away.",
      "connections": [
        {
          "region": "Sinnoh",
          "location": "Oreburgh City",
          "direction": "a"
        },
        {
          "region": "Sinnoh",
          "location": "Route 203",
          "direction": "a"
        }
      ]
    },
    {
      "name": "Oreburgh Mine",
      "description": "A coal mine located at the southern end of Oreburgh City.",
      "connections": [
        {
          "region": "Sinnoh",
          "location": "Oreburgh City",
          "direction": "a"
        }
      ]
    },
    {
      "name": "Oreburgh Mining Museum",
      "description": "A museum that specializes in exhibits related to the town's coal mine.",
      "connections": [
        {
          "region": "Sinnoh",
          "location": "Oreburgh City",
          "direction": "a"
        }
      ]
    },
    {
      "name": "Global Terminal",
      "description": "Also known as the Global Trade Station, or GTS for short. Here Trainers can access the Global Trade System, a worldwide network over which Trainers from all over the world can trade Pokémon.",
      "connections": [
        {
          "region": "Sinnoh",
          "location": "Jubilife City",
          "direction": "a"
        }
      ]
    },
    {
      "name": "Ravaged Path",
      "description": "A small cave that runs under Route 204.",
      "connections": [
        {
          "region": "Sinnoh",
          "location": "Route 204",
          "direction": "a"
        }
      ]
    },
    {
      "name": "Floaroma Meadow",
      "description": "Many Combee swarm to this flowery meadow. The trees here are often ripe with honey.",
      "connections": [
        {
          "region": "Sinnoh",
          "location": "Floaroma Town",
          "direction": "a"
        }
      ]
    },
    {
      "name": "Valley Windworks",
      "description": "Numerous wind turbines stand in the vicinity of the Valley Windworks. Winds blowing through the canyon feed the wind turbines to generate clean electricity.",
      "connections": [
        {
          "region": "Sinnoh",
          "location": "Route 205",
          "direction": "a"
        }
      ]
    },
    {
      "name": "Eterna Forest",
      "description": "A forest enveloped in chilly air. Thick stands of trees turn the forest into a natural maze. Deep in the forest is the Old Chateau. It is falling into disrepair after being abandoned by its owner.",
      "connections": [
        {
          "region": "Sinnoh",
          "location": "Route 205",
          "direction": "a"
        },
        {
          "region": "Sinnoh",
          "location": "Old Chateau",
          "direction": "a"
        }
      ]
    },
    {
      "name": "Old Chateau",
      "description": "Deep in the forest is the Old Chateau. It is falling into disrepair after being abandoned by its owner.",
      "connections": [
        {
          "region": "Sinnoh",
          "location": "Eterna Forest",
          "direction": "a"
        }
      ]
    },
    {
      "name": "Wayward Cave",
      "description": "An underground cave near Cycling Road. It is easy to get lost due to all the twists and turns.",
      "connections": [
        {
          "region": "Sinnoh",
          "location": "Route 206",
          "direction": "a"
        }
      ]
    },
    {
      "name": "Mt. Coronet",
      "description": "A sacred mountain that is capped the year round with snow. A gigantic maze sprawls inside it. There is an ancient ruin named the Spear Pillar located here. A special magnetic fields emanates from this mountain.",
      "connections": [
        {
          "region": "Sinnoh",
          "location": "Route 207",
          "direction": "a"
        },
        {
          "region": "Sinnoh",
          "location": "Route 208",
          "direction": "a"
        },
        {
          "region": "Sinnoh",
          "location": "Route 211",
          "direction": "a"
        },
        {
          "region": "Sinnoh",
          "location": "Route 216",
          "direction": "a"
        },
        {
          "region": "Sinnoh",
          "location": "Spear Pillar",
          "direction": "a"
        }
      ]
    },
    {
      "name": "Spear Pillar",
      "description": "An ancient ruin where the Legendary Pokémon Dialga, Palkia, and Giratina were created by Arceus and from which, legends say, Sinnoh itself came from.",
      "connections": [
        {
          "region": "Sinnoh",
          "location": "Mt. Coronet",
          "direction": "a"
        },
        {
          "region": "Sinnoh",
          "location": "Hall of Origin",
          "direction": "a"
        }
      ]
    },
    {
      "name": "Amity Square",
      "description": "The square is a place where Trainers can stroll peacefully with Pokémon.",
      "connections": [
        {
          "region": "Sinnoh",
          "location": "Hearthome City",
          "direction": "a"
        }
      ]
    },
    {
      "name": "Lost Tower",
      "description": "A resting ground for deceased Pokémon. Trainers who pay their respects by making it to the top of the tower will receive gifts from the Tower's overseers.",
      "connections": [
        {
          "region": "Sinnoh",
          "location": "Route 209",
          "direction": "a"
        }
      ]
    },
    {
      "name": "Hallowed Tower",
      "description": "A crumbling tower located on Route 209. On it is an inscription that is unreadable.",
      "connections": [
        {
          "region": "Sinnoh",
          "location": "Route 209",
          "direction": "a"
        }
      ]
    },
    {
      "name": "Solaceon Ruins",
      "description": "A set of ruins outside of Solaceon Town, famous for the Unown that inhabit them.",
      "connections": [
        {
          "region": "Sinnoh",
          "location": "Solaceon Town",
          "direction": "a"
        },
        {
          "region": "Sinnoh",
          "location": "Maniac Tunnel",
          "direction": "a"
        }
      ]
    },
    {
      "name": "Maniac Tunnel",
      "description": "A ruin maniac dug out this tunnel to gain access to hidden chambers of the Solaceon Ruins.",
      "connections": [
        {
          "region": "Sinnoh",
          "location": "Solaceon Ruins",
          "direction": "a"
        },
        {
          "region": "Sinnoh",
          "location": "Route 214",
          "direction": "a"
        }
      ]
    },
    {
      "name": "Lake Valor",
      "description": "One of the lakes that is symbolic of the water-rich Sinnoh Region. There is an odd legend associated with it. A high-class restaurant is located on a hill overlooking the lake.",
      "connections": [
        {
          "region": "Sinnoh",
          "location": "Valor Lakefront",
          "direction": "a"
        }
      ]
    },
    {
      "name": "Valor Lakefront",
      "description": "One of the lakes that is symbolic of the water-rich Sinnoh Region. There is an odd legend associated with it. A high-class restaurant is located on a hill overlooking the lake.",
      "connections": [
        {
          "region": "Sinnoh",
          "location": "Route 214",
          "direction": "a"
        },
        {
          "region": "Sinnoh",
          "location": "Route 222",
          "direction": "a"
        },
        {
          "region": "Sinnoh",
          "location": "Lake Valor",
          "direction": "a"
        },
        {
          "region": "Sinnoh",
          "location": "Route 213",
          "direction": "a"
        }
      ]
    },
    {
      "name": "Great Marsh",
      "description": "Many Pokémon from Sinnoh can only be found in preservation. A railway provides transportation for Trainers to safely traverse the marshy terrain.",
      "connections": [
        {
          "region": "Sinnoh",
          "location": "Pastoria City",
          "direction": "a"
        }
      ]
    },
    {
      "name": "Pokémon Mansion",
      "description": "A big, old mansion owned by Mr. Backlot, the owner of Amity Square. The house is well-guarded outside. It is also the home of the famous Trophy Garden.",
      "connections": [
        {
          "region": "Sinnoh",
          "location": "Route 212",
          "direction": "a"
        },
        {
          "region": "Sinnoh",
          "location": "Trophy Garden",
          "direction": "a"
        }
      ]
    },
    {
      "name": "Trophy Garden",
      "description": "A beautiful garden located in the back of Pokémon Mansion. Many rare Pokémon can be found here.",
      "connections": [
        {
          "region": "Sinnoh",
          "location": "Pokémon Mansion",
          "direction": "a"
        }
      ]
    },
    {
      "name": "Fuego Ironworks",
      "description": "The sprawling ironworks is located with the forest at its back. The ironworks refines iron ore mined from Mt. Coronet to make iron and to manufacture mechanical parts.",
      "connections": [
        {
          "region": "Sinnoh",
          "location": "Route 205",
          "direction": "a"
        },
        {
          "region": "Sinnoh",
          "location": "Floaroma Town",
          "direction": "a"
        }
      ]
    },
    {
      "name": "Iron Island",
      "description": "A small, ore-rich island that is off the coast of Eterna City. Inside the island are remnants of an iron ore mining operation from the past.",
      "connections": [
        {
          "region": "Sinnoh",
          "location": "Canalave City",
          "direction": "f"
        }
      ]
    },
    {
      "name": "Fullmoon Island",
      "description": "A small, crescent-shaped pond that lies inside a closed-off forest.",
      "connections": [
        {
          "region": "Sinnoh",
          "location": "Canalave City",
          "direction": "f"
        }
      ]
    },
    {
      "name": "Newmoon Island",
      "description": "A small, round pond that lies inside a closed-off forest.",
      "connections": [
        {
          "region": "Sinnoh",
          "location": "Canalave City",
          "direction": "f"
        }
      ]
    },
    {
      "name": "Lake Acuity",
      "description": "One of the lakes that is symbolic of the water-rich Sinnoh Region. There is an odd legend associated with it. It is possible to enter the cave underneath the lake from the island in the middle.",
      "connections": [
        {
          "region": "Sinnoh",
          "location": "Acuity Lakefront",
          "direction": "a"
        }
      ]
    },
    {
      "name": "Acuity Lakefront",
      "description": "One of the lakes that is symbolic of the water-rich Sinnoh Region. There is an odd legend associated with it. It is possible to enter the cave underneath the lake from the island in the middle.",
      "connections": [
        {
          "region": "Sinnoh",
          "location": "Lake Acuity",
          "direction": "a"
        },
        {
          "region": "Sinnoh",
          "location": "Snowpoint City",
          "direction": "a"
        },
        {
          "region": "Sinnoh",
          "location": "Route 217",
          "direction": "a"
        }
      ]
    },
    {
      "name": "Victory Road",
      "description": "Trainers seeking to be the best arrive here after a long and grueling journey. Victory Road is the last and toughest of the challenges leading up to the Pokémon League.",
      "connections": [
        {
          "region": "Sinnoh",
          "location": "Pokémon League",
          "direction": "a"
        },
        {
          "region": "Sinnoh",
          "location": "Route 224",
          "direction": "a"
        }
      ]
    },
    {
      "name": "Battle Frontier",
      "description": "A place where people from all over come to show off their strength.",
      "connections": [
        {
          "region": "Sinnoh",
          "location": "Fight Area",
          "direction": "a"
        }
      ]
    },
    {
      "name": "Stark Mountain",
      "description": "A rugged, seemingly indestructible rock mountain that is thickly blanketed by the volcanic ash it spews. Inside the mountain, fissures in spilled and hardened lava form enormous caverns.",
      "connections": [
        {
          "region": "Sinnoh",
          "location": "Route 227",
          "direction": "a"
        }
      ]
    },
    {
      "name": "Snowpoint Temple",
      "description": "A temple dedicated to the preservation of Regigigas, who slumbers deep inside the temple. Access to this temple is typically denied for those who wish to enter.",
      "connections": [
        {
          "region": "Sinnoh",
          "location": "Snowpoint City",
          "direction": "a"
        }
      ]
    },
    {
      "name": "Spring Path",
      "description": "The fourth lake of Sinnoh that was kept secret. Beneath the lake's surface is a cave where dimensions are distorted.",
      "connections": [
        {
          "region": "Sinnoh",
          "location": "Sendoff Spring",
          "direction": "a"
        },
        {
          "region": "Sinnoh",
          "location": "Route 214",
          "direction": "a"
        }
      ]
    },
    {
      "name": "Sendoff Spring",
      "description": "The fourth lake of Sinnoh that was kept secret. Beneath the lake's surface is a cave where dimensions are distorted.",
      "connections": [
        {
          "region": "Sinnoh",
          "location": "Spring Path",
          "direction": "a"
        },
        {
          "region": "Sinnoh",
          "location": "Turnback Cave",
          "direction": "a"
        }
      ]
    },
    {
      "name": "Turnback Cave",
      "description": "A cave deep inside the Sendoff Springs. Ancient pillars with inscriptions aid explorers in navigating the mazelike tunnels.",
      "connections": [
        {
          "region": "Sinnoh",
          "location": "Sendoff Spring",
          "direction": "a"
        }
      ]
    },
    {
      "name": "Seabreak Path",
      "description": "A straight path bounded by the sea on both sides. It leads to the Flower Paradise.",
      "connections": [
        {
          "region": "Sinnoh",
          "location": "Flower Paradise",
          "direction": "a"
        },
        {
          "region": "Sinnoh",
          "location": "Route 224",
          "direction": "a"
        }
      ]
    },
    {
      "name": "Flower Paradise",
      "description": "A speck of an island far from any civilization. It is covered in an abundance of flowers.",
      "connections": [
        {
          "region": "Sinnoh",
          "location": "Seabreak Path",
          "direction": "a"
        }
      ]
    },
    {
      "name": "Hall of Origin",
      "description": "Said to be located high above the Spear Pillar, this is where Arceus resides.",
      "connections": [
        {
          "region": "Sinnoh",
          "location": "Spear Pillar",
          "direction": "a"
        }
      ]
    },
    {
      "name": "Distortion World",
      "description": "An alternate dimension controlled by the legendary Pokémon Giratina."
    }
  ]
}