{
  "name": "Unova",
  "starterPokemon": [
    "Snivy",
    "Tepig",
    "Oshawott"
  ],
  "startingLocation": "Aspertia City",
  "professor": "Juniper",
  "locations": [
    {
      "name": "Nuvema Town",
      "description": "A rural town whose sea breezes give the sense of something coming.",
      "connections": [
        {
          "region": "Unova",
          "location": "Route 1",
          "direction": "n"
        }
      ]
    },
    {
      "name": "Accumula Town",
      "description": "This town offers great views due to its many hills.",
      "connections": [
        {
          "region": "Unova",
          "location": "Route 2",
          "direction": "w"
        },
        {
          "region": "Unova",
          "location": "Route 1",
          "direction": "s"
        }
      ]
    },
    {
      "name": "Striaton City",
      "description": "Entry stairs built in memory of a former home in a snowier climate.",
      "connections": [
        {
          "region": "Unova",
          "location": "Route 3",
          "direction": "n"
        },
        {
          "region": "Unova",
          "location": "Route 2",
          "direction": "s"
        },
        {
          "region": "Unova",
          "location": "Dreamyard",
          "direction": "a"
        }
      ]
    },
    {
      "name": "Nacrene City",
      "description": "A city established in restored storehouses built 100 years ago.",
      "connections": [
        {
          "region": "Unova",
          "location": "Route 3",
          "direction": "e"
        },
        {
          "region": "Unova",
          "location": "Pinwheel Forest",
          "direction": "a"
        }
      ]
    },
    {
      "name": "Castelia City",
      "description": "A big city with skyscrapers piercing the clouds.",
      "connections": [
        {
          "region": "Unova",
          "location": "Route 4",
          "direction": "n"
        },
        {
          "region": "Unova",
          "location": "Skyarrow Bridge",
          "direction": "a"
        },
        {
          "region": "Unova",
          "location": "Castelia Sewers",
          "direction": "a"
        },
        {
          "region": "Unova",
          "location": "Liberty Garden",
          "direction": "f"
        },
        {
          "region": "Unova",
          "location": "Royal Unova",
          "direction": "f"
        },
        {
          "region": "Unova",
          "location": "Unity Tower",
          "direction": "f"
        },
        {
          "region": "Unova",
          "location": "Virbank City",
          "direction": "f"
        }
      ]
    },
    {
      "name": "Nimbasa City",
      "description": "A bustling city of entertainment, with many theme parks.",
      "connections": [
        {
          "region": "Unova",
          "location": "Route 16",
          "direction": "e"
        },
        {
          "region": "Unova",
          "location": "Route 5",
          "direction": "w"
        },
        {
          "region": "Unova",
          "location": "Join Avenue",
          "direction": "a"
        },
        {
          "region": "Unova",
          "location": "Anville Town",
          "direction": "a"
        },
        {
          "region": "Unova",
          "location": "Gear Station",
          "direction": "a"
        }
      ]
    },
    {
      "name": "Anville Town",
      "description": "A city with a rail yard where trains park for an overhaul.",
      "connections": [
        {
          "region": "Unova",
          "location": "Nimbasa City",
          "direction": "a"
        }
      ]
    },
    {
      "name": "Driftveil City",
      "description": "A port town distributing many goods, and a gateway to the Unova region.",
      "connections": [
        {
          "region": "Unova",
          "location": "Route 6",
          "direction": "w"
        },
        {
          "region": "Unova",
          "location": "Clay Tunnel",
          "direction": "a"
        },
        {
          "region": "Unova",
          "location": "Driftveil Drawbridge",
          "direction": "a"
        },
        {
          "region": "Unova",
          "location": "Cold Storage",
          "direction": "a"
        },
        {
          "region": "Unova",
          "location": "Pokémon World Tournament",
          "direction": "a"
        }
      ]
    },
    {
      "name": "Mistralton City",
      "description": "Vegetables are grown by the runway and transported by cargo plane.",
      "connections": [
        {
          "region": "Unova",
          "location": "Route 7",
          "direction": "n"
        },
        {
          "region": "Unova",
          "location": "Chargestone Cave",
          "direction": "a"
        },
        {
          "region": "Unova",
          "location": "Lentimas Town",
          "direction": "a"
        }
      ]
    },
    {
      "name": "Icirrus City",
      "description": "In winter, the city is covered with snow as far as the eye can see.",
      "connections": [
        {
          "region": "Unova",
          "location": "Route 8",
          "direction": "e"
        },
        {
          "region": "Unova",
          "location": "Dragonspiral Tower",
          "direction": "a"
        },
        {
          "region": "Unova",
          "location": "Twist Mountain",
          "direction": "a"
        }
      ]
    },
    {
      "name": "Opelucid City",
      "description": "A city that respects history and values old things.",
      "connections": [
        {
          "region": "Unova",
          "location": "Route 10",
          "direction": "n"
        },
        {
          "region": "Unova",
          "location": "Route 11",
          "direction": "e"
        },
        {
          "region": "Unova",
          "location": "Route 9",
          "direction": "w"
        }
      ]
    },
    {
      "name": "Pokémon League",
      "description": "Only Trainers who win at all the Pokémon Gyms may challenge it.",
      "connections": [
        {
          "region": "Unova",
          "location": "Victory Road",
          "direction": "a"
        }
      ]
    },
    {
      "name": "Lacunosa Town",
      "description": "A town where all honor old customs, living as methodically as clockwork.",
      "connections": [
        {
          "region": "Unova",
          "location": "Route 13",
          "direction": "e"
        },
        {
          "region": "Unova",
          "location": "Route 12",
          "direction": "w"
        }
      ]
    },
    {
      "name": "Undella Town",
      "description": "A summer retreat with a beach full of people who enjoy summer vacations.",
      "connections": [
        {
          "region": "Unova",
          "location": "Route 13",
          "direction": "n"
        },
        {
          "region": "Unova",
          "location": "Route 14",
          "direction": "s"
        },
        {
          "region": "Unova",
          "location": "Undella Bay",
          "direction": "a"
        },
        {
          "region": "Unova",
          "location": "Marine Tube",
          "direction": "a"
        },
        {
          "region": "Unova",
          "location": "Reversal Mountain",
          "direction": "a"
        }
      ]
    },
    {
      "name": "Black City",
      "description": "A modern city of ongoing development that draws people to it.",
      "connections": [
        {
          "region": "Unova",
          "location": "Route 14",
          "direction": "n"
        },
        {
          "region": "Unova",
          "location": "Route 15",
          "direction": "w"
        },
        {
          "region": "Unova",
          "location": "White Treehollow",
          "direction": "a"
        }
      ]
    },
    {
      "name": "White Forest",
      "description": "A place of nature's bounty, it attracts people who long for nature.",
      "connections": [
        {
          "region": "Unova",
          "location": "Route 14",
          "direction": "n"
        },
        {
          "region": "Unova",
          "location": "Route 15",
          "direction": "w"
        },
        {
          "region": "Unova",
          "location": "Black Tower",
          "direction": "a"
        }
      ]
    },
    {
      "name": "Aspertia City",
      "description": "A city at the foot of high mountains where you can see all of Unova.",
      "connections": [
        {
          "region": "Unova",
          "location": "Route 19",
          "direction": "n"
        }
      ]
    },
    {
      "name": "Floccesy Town",
      "description": "The town is famous for a clock tower that tells of the town's beginnings.",
      "connections": [
        {
          "region": "Unova",
          "location": "Route 20",
          "direction": "e"
        },
        {
          "region": "Unova",
          "location": "Route 19",
          "direction": "w"
        },
        {
          "region": "Unova",
          "location": "Pledge Grove",
          "direction": "a"
        }
      ]
    },
    {
      "name": "Virbank City",
      "description": "A city often covered by clouds and smoke, with very active residents.",
      "connections": [
        {
          "region": "Unova",
          "location": "Route 20",
          "direction": "w"
        },
        {
          "region": "Unova",
          "location": "Pokéstar Studios",
          "direction": "a"
        },
        {
          "region": "Unova",
          "location": "Virbank Complex",
          "direction": "a"
        },
        {
          "region": "Unova",
          "location": "Castelia City",
          "direction": "a"
        }
      ]
    },
    {
      "name": "Lentimas Town",
      "description": "The town boasts of porcelain and pottery made from volcanic clay.",
      "connections": [
        {
          "region": "Unova",
          "location": "Reversal Mountain",
          "direction": "a"
        },
        {
          "region": "Unova",
          "location": "Mistralton City",
          "direction": "a"
        }
      ]
    },
    {
      "name": "Humilau City",
      "description": "A resort city where buildings float in the waves and look like islands.",
      "connections": [
        {
          "region": "Unova",
          "location": "Route 22",
          "direction": "w"
        },
        {
          "region": "Unova",
          "location": "Route 21",
          "direction": "s"
        },
        {
          "region": "Unova",
          "location": "Marine Tube",
          "direction": "a"
        }
      ]
    },
    {
      "name": "Route 1",
      "description": "A small road by the shore, where you can enjoy the changing seasons.",
      "connections": [
        {
          "region": "Unova",
          "location": "Accumula Town",
          "direction": "n"
        },
        {
          "region": "Unova",
          "location": "Route 17",
          "direction": "w"
        },
        {
          "region": "Unova",
          "location": "Nuvema Town",
          "direction": "s"
        }
      ]
    },
    {
      "name": "Route 2",
      "description": "A pastoral road where Trainers challenge one another.",
      "connections": [
        {
          "region": "Unova",
          "location": "Striaton City",
          "direction": "n"
        },
        {
          "region": "Unova",
          "location": "Accumula Town",
          "direction": "e"
        }
      ]
    },
    {
      "name": "Route 3",
      "description": "A long winding road with lots of ponds and tall grass.",
      "connections": [
        {
          "region": "Unova",
          "location": "Nacrene City",
          "direction": "w"
        },
        {
          "region": "Unova",
          "location": "Striaton City",
          "direction": "s"
        },
        {
          "region": "Unova",
          "location": "Wellspring Cave",
          "direction": "a"
        }
      ]
    },
    {
      "name": "Route 4",
      "description": "Development was suspended after the ruins were discovered.",
      "connections": [
        {
          "region": "Unova",
          "location": "Castelia City",
          "direction": "s"
        },
        {
          "region": "Unova",
          "location": "Join Avenue",
          "direction": "a"
        },
        {
          "region": "Unova",
          "location": "Desert Resort",
          "direction": "a"
        }
      ]
    },
    {
      "name": "Route 5",
      "description": "A busy road where performers gather.",
      "connections": [
        {
          "region": "Unova",
          "location": "Nimbasa City",
          "direction": "e"
        },
        {
          "region": "Unova",
          "location": "Driftveil Drawbridge",
          "direction": "a"
        }
      ]
    },
    {
      "name": "Route 6",
      "description": "A road with many trees for nature lovers.",
      "connections": [
        {
          "region": "Unova",
          "location": "Driftveil City",
          "direction": "e"
        },
        {
          "region": "Unova",
          "location": "Chargestone Cave",
          "direction": "a"
        },
        {
          "region": "Unova",
          "location": "Mistralton Cave",
          "direction": "a"
        }
      ]
    },
    {
      "name": "Route 7",
      "description": "Raised walkways help you avoid the tall grass.",
      "connections": [
        {
          "region": "Unova",
          "location": "Mistralton City",
          "direction": "s"
        },
        {
          "region": "Unova",
          "location": "Celestial Tower",
          "direction": "a"
        },
        {
          "region": "Unova",
          "location": "Twist Mountain",
          "direction": "a"
        }
      ]
    },
    {
      "name": "Route 8",
      "description": "It rains a lot here, and the marshy swamp holds many Pokémon.",
      "connections": [
        {
          "region": "Unova",
          "location": "Icirrus City",
          "direction": "w"
        },
        {
          "region": "Unova",
          "location": "Moor of Icirrus",
          "direction": "a"
        },
        {
          "region": "Unova",
          "location": "Tubeline Bridge",
          "direction": "a"
        }
      ]
    },
    {
      "name": "Route 9",
      "description": "This paved road attracts those who love bikes.",
      "connections": [
        {
          "region": "Unova",
          "location": "Opelucid City",
          "direction": "e"
        },
        {
          "region": "Unova",
          "location": "Tubeline Bridge",
          "direction": "a"
        },
        {
          "region": "Unova",
          "location": "Challenger's Cave",
          "direction": "a"
        }
      ]
    },
    {
      "name": "Route 10",
      "description": "A road leading to the Badge Check Gates, chock full of showoffs.",
      "connections": [
        {
          "region": "Unova",
          "location": "Opelucid City",
          "direction": "s"
        },
        {
          "region": "Unova",
          "location": "Victory Road",
          "direction": "a"
        }
      ]
    },
    {
      "name": "Route 11",
      "description": "Limpid streams carved beautiful scenery on this road.",
      "connections": [
        {
          "region": "Unova",
          "location": "Opelucid City",
          "direction": "w"
        },
        {
          "region": "Unova",
          "location": "Village Bridge",
          "direction": "a"
        }
      ]
    },
    {
      "name": "Route 12",
      "description": "A place of fun, where it's enjoyable just walking over its gentle hills.",
      "connections": [
        {
          "region": "Unova",
          "location": "Lacunosa Town",
          "direction": "w"
        },
        {
          "region": "Unova",
          "location": "Village Bridge",
          "direction": "a"
        }
      ]
    },
    {
      "name": "Route 13",
      "description": "This seaside route is famous for sandbars that cross the ocean.",
      "connections": [
        {
          "region": "Unova",
          "location": "Lacunosa Town",
          "direction": "w"
        },
        {
          "region": "Unova",
          "location": "Undella Town",
          "direction": "s"
        },
        {
          "region": "Unova",
          "location": "Giant Chasm",
          "direction": "a"
        }
      ]
    },
    {
      "name": "Route 14",
      "description": "A road covered with mist from the waterfalls.",
      "connections": [
        {
          "region": "Unova",
          "location": "Undella Town",
          "direction": "n"
        },
        {
          "region": "Unova",
          "location": "Black City",
          "direction": "s"
        },
        {
          "region": "Unova",
          "location": "White Forest",
          "direction": "s"
        },
        {
          "region": "Unova",
          "location": "Abundant Shrine",
          "direction": "a"
        }
      ]
    },
    {
      "name": "Route 15",
      "description": "A road whose sharp cliffs may scare some people off.",
      "connections": [
        {
          "region": "Unova",
          "location": "Black City",
          "direction": "e"
        },
        {
          "region": "Unova",
          "location": "White Forest",
          "direction": "e"
        },
        {
          "region": "Unova",
          "location": "Marvelous Bridge",
          "direction": "a"
        },
        {
          "region": "Unova",
          "location": "Poké Transfer Lab",
          "direction": "a"
        }
      ]
    },
    {
      "name": "Route 16",
      "description": "Many who visit Nimbasa City drop by to take a break.",
      "connections": [
        {
          "region": "Unova",
          "location": "Nimbasa City",
          "direction": "w"
        },
        {
          "region": "Unova",
          "location": "Lostlorn Forest",
          "direction": "a"
        },
        {
          "region": "Unova",
          "location": "Marvelous Bridge",
          "direction": "a"
        }
      ]
    },
    {
      "name": "Route 17",
      "description": "The fast current here makes it difficult to surf.",
      "connections": [
        {
          "region": "Unova",
          "location": "Route 1",
          "direction": "e"
        },
        {
          "region": "Unova",
          "location": "Route 18",
          "direction": "w"
        },
        {
          "region": "Unova",
          "location": "P2 Laboratory",
          "direction": "a"
        }
      ]
    },
    {
      "name": "Route 18",
      "description": "Some researchers believe it was once contiguous with Desert Resort.",
      "connections": [
        {
          "region": "Unova",
          "location": "Route 17",
          "direction": "e"
        }
      ]
    },
    {
      "name": "Route 19",
      "description": "A path formed at the foot of mountains. It has a gradual slope.",
      "connections": [
        {
          "region": "Unova",
          "location": "Floccesy Town",
          "direction": "e"
        },
        {
          "region": "Unova",
          "location": "Aspertia City",
          "direction": "s"
        }
      ]
    },
    {
      "name": "Route 20",
      "description": "In autumn, fallen leaves accumulate and hide the ground beneath.",
      "connections": [
        {
          "region": "Unova",
          "location": "Virbank City",
          "direction": "e"
        },
        {
          "region": "Unova",
          "location": "Floccesy Town",
          "direction": "w"
        },
        {
          "region": "Unova",
          "location": "Floccesy Ranch",
          "direction": "a"
        },
        {
          "region": "Unova",
          "location": "Cave of Being",
          "direction": "a"
        }
      ]
    },
    {
      "name": "Route 21",
      "description": "Many rocks make swimming difficult. Proud swimmers come to show off.",
      "connections": [
        {
          "region": "Unova",
          "location": "Humilau City",
          "direction": "n"
        },
        {
          "region": "Unova",
          "location": "Seaside Cave",
          "direction": "a"
        }
      ]
    },
    {
      "name": "Route 22",
      "description": "A lot of ups and downs and ledges make the route a natural maze.",
      "connections": [
        {
          "region": "Unova",
          "location": "Humilau City",
          "direction": "e"
        },
        {
          "region": "Unova",
          "location": "Giant Chasm",
          "direction": "a"
        }
      ]
    },
    {
      "name": "Route 23",
      "description": "A mountain path of no return with overwhelming cliffs.",
      "connections": [
        {
          "region": "Unova",
          "location": "Victory Road",
          "direction": "a"
        },
        {
          "region": "Unova",
          "location": "Giant Chasm",
          "direction": "a"
        }
      ]
    },
    {
      "name": "Skyarrow Bridge",
      "description": "The biggest, longest bridge in Unova has four supporting towers.",
      "connections": [
        {
          "region": "Unova",
          "location": "Pinwheel Forest",
          "direction": "a"
        },
        {
          "region": "Unova",
          "location": "Castelia City",
          "direction": "a"
        }
      ]
    },
    {
      "name": "Driftveil Drawbridge",
      "description": "A drawbridge raises and lowers, depending on the ship schedules.",
      "connections": [
        {
          "region": "Unova",
          "location": "Driftveil City",
          "direction": "a"
        },
        {
          "region": "Unova",
          "location": "Route 5",
          "direction": "a"
        }
      ]
    },
    {
      "name": "Tubeline Bridge",
      "description": "A sturdy steel bridge that won't budge an inch when trains cross it.",
      "connections": [
        {
          "region": "Unova",
          "location": "Route 8",
          "direction": "a"
        },
        {
          "region": "Unova",
          "location": "Route 9",
          "direction": "a"
        }
      ]
    },
    {
      "name": "Village Bridge",
      "description": "An old bridge that settlers of the Unova region built and now live on.",
      "connections": [
        {
          "region": "Unova",
          "location": "Route 11",
          "direction": "a"
        },
        {
          "region": "Unova",
          "location": "Route 12",
          "direction": "a"
        }
      ]
    },
    {
      "name": "Marvelous Bridge",
      "description": "The most advanced bridge in Unova, designed to soften any impact.",
      "connections": [
        {
          "region": "Unova",
          "location": "Route 15",
          "direction": "a"
        },
        {
          "region": "Unova",
          "location": "Route 16",
          "direction": "a"
        }
      ]
    },
    {
      "name": "Marine Tube",
      "description": "An undersea tunnel built using cutting-edge technology.",
      "connections": [
        {
          "region": "Unova",
          "location": "Undella Town",
          "direction": "a"
        },
        {
          "region": "Unova",
          "location": "Humilau City",
          "direction": "a"
        }
      ]
    },
    {
      "name": "Dreamyard",
      "description": "A plant site used as a playground for children and Pokémon.",
      "connections": [
        {
          "region": "Unova",
          "location": "Striaton City",
          "direction": "a"
        }
      ]
    },
    {
      "name": "Wellspring Cave",
      "description": "The underwater pool grew from rainwater soaking into the ground.",
      "connections": [
        {
          "region": "Unova",
          "location": "Route 3",
          "direction": "a"
        }
      ]
    },
    {
      "name": "Pinwheel Forest",
      "description": "You can go through hollows of fallen trees, too.",
      "connections": [
        {
          "region": "Unova",
          "location": "Nacrene City",
          "direction": "a"
        },
        {
          "region": "Unova",
          "location": "Skyarrow Bridge",
          "direction": "a"
        }
      ]
    },
    {
      "name": "Liberty Garden",
      "description": "An island symbol of hope for a world where humans and Pokémon live free.",
      "connections": [
        {
          "region": "Unova",
          "location": "Castelia City",
          "direction": "f"
        }
      ]
    },
    {
      "name": "Desert Resort",
      "description": "It is a popular place for tourists, but too harsh to be a resort.",
      "connections": [
        {
          "region": "Unova",
          "location": "Route 4",
          "direction": "a"
        },
        {
          "region": "Unova",
          "location": "Relic Castle",
          "direction": "a"
        }
      ]
    },
    {
      "name": "Relic Castle",
      "description": "Ancient ruins with a glorious history, buried in the sand as time went by.",
      "connections": [
        {
          "region": "Unova",
          "location": "Desert Resort",
          "direction": "a"
        },
        {
          "region": "Unova",
          "location": "Relic Passage",
          "direction": "a"
        },
        {
          "region": "Unova",
          "location": "N's Castle",
          "direction": "a"
        }
      ]
    },
    {
      "name": "Gear Station",
      "description": "A location under Nimbasa City that connects all of Unova's train lines together, including the Battle Subway.",
      "connections": [
        {
          "region": "Unova",
          "location": "Nimbasa City",
          "direction": "a"
        }
      ]
    },
    {
      "name": "Lostlorn Forest",
      "description": "It was once known as a place where people got lost for no reason.",
      "connections": [
        {
          "region": "Unova",
          "location": "Route 16",
          "direction": "a"
        }
      ]
    },
    {
      "name": "Cold Storage",
      "description": "An area of warehouses to the south of Driftveil City. Each warehouse is kept at a freezing temperature.",
      "connections": [
        {
          "region": "Unova",
          "location": "Driftveil City",
          "direction": "a"
        }
      ]
    },
    {
      "name": "Mistralton Cave",
      "description": "A forgotten cave sealed with hints of a legend's presence.",
      "connections": [
        {
          "region": "Unova",
          "location": "Route 6",
          "direction": "a"
        },
        {
          "region": "Unova",
          "location": "Clay Tunnel",
          "direction": "a"
        }
      ]
    },
    {
      "name": "Chargestone Cave",
      "description": "A cave where electrically charged stones float.",
      "connections": [
        {
          "region": "Unova",
          "location": "Route 6",
          "direction": "a"
        },
        {
          "region": "Unova",
          "location": "Mistralton City",
          "direction": "a"
        }
      ]
    },
    {
      "name": "Celestial Tower",
      "description": "A tall tower with a large bell whose tones are said to purify the spirit.",
      "connections": [
        {
          "region": "Unova",
          "location": "Route 7",
          "direction": "a"
        }
      ]
    },
    {
      "name": "Twist Mountain",
      "description": "It has a reputation as a mine littered with valuable ore.",
      "connections": [
        {
          "region": "Unova",
          "location": "Route 7",
          "direction": "a"
        },
        {
          "region": "Unova",
          "location": "Icirrus City",
          "direction": "a"
        },
        {
          "region": "Unova",
          "location": "Clay Tunnel",
          "direction": "a"
        }
      ]
    },
    {
      "name": "Dragonspiral Tower",
      "description": "The oldest tower in the Unova region. No one knows its history.",
      "connections": [
        {
          "region": "Unova",
          "location": "Icirrus City",
          "direction": "a"
        }
      ]
    },
    {
      "name": "Moor of Icirrus",
      "description": "They say water collecting in hollows on the flat land created the moor.",
      "connections": [
        {
          "region": "Unova",
          "location": "Route 8",
          "direction": "a"
        }
      ]
    },
    {
      "name": "Challenger's Cave",
      "description": "Trainers seeking further strength enter the cavern despite the risks.",
      "connections": [
        {
          "region": "Unova",
          "location": "Route 9",
          "direction": "a"
        }
      ]
    },
    {
      "name": "Victory Road",
      "description": "These forking paths are the last obstacle before the Pokémon League!",
      "connections": [
        {
          "region": "Unova",
          "location": "Route 10",
          "direction": "a"
        },
        {
          "region": "Unova",
          "location": "Route 23",
          "direction": "a"
        },
        {
          "region": "Unova",
          "location": "Pokémon League",
          "direction": "a"
        },
        {
          "region": "Unova",
          "location": "N's Castle",
          "direction": "a"
        }
      ]
    },
    {
      "name": "N's Castle",
      "description": "It once appeared in the past as a base for Team Plasma...",
      "connections": [
        {
          "region": "Unova",
          "location": "Victory Road",
          "direction": "a"
        },
        {
          "region": "Unova",
          "location": "Relic Castle",
          "direction": "a"
        }
      ]
    },
    {
      "name": "Royal Unova",
      "description": "It sets sail in the evening, which starts when day begins visually fading into night and ends when daylight is completely gone.",
      "connections": [
        {
          "region": "Unova",
          "location": "Castelia City",
          "direction": "f"
        }
      ]
    },
    {
      "name": "Giant Chasm",
      "description": "Legend says that if you approach this big chasm, disasters surely follow.",
      "connections": [
        {
          "region": "Unova",
          "location": "Route 13",
          "direction": "a"
        },
        {
          "region": "Unova",
          "location": "Route 22",
          "direction": "a"
        },
        {
          "region": "Unova",
          "location": "Route 23",
          "direction": "a"
        }
      ]
    },
    {
      "name": "Undella Bay",
      "description": "A world-famous sea of shining waves.",
      "connections": [
        {
          "region": "Unova",
          "location": "Undella Town",
          "direction": "a"
        },
        {
          "region": "Unova",
          "location": "Seaside Cave",
          "direction": "a"
        },
        {
          "region": "Unova",
          "location": "Abyssal Ruins",
          "direction": "a"
        }
      ]
    },
    {
      "name": "Abyssal Ruins",
      "description": "An ancient tomb that is said to be the resting place of an ancient king.",
      "connections": [
        {
          "region": "Unova",
          "location": "Undella Bay",
          "direction": "a"
        }
      ]
    },
    {
      "name": "Abundant Shrine",
      "description": "People once lived in this village, and it still feels the same as it did then.",
      "connections": [
        {
          "region": "Unova",
          "location": "Route 14",
          "direction": "a"
        }
      ]
    },
    {
      "name": "Poké Transfer Lab",
      "description": "A facility to study Pokémon from faraway regions.",
      "connections": [
        {
          "region": "Unova",
          "location": "Route 15",
          "direction": "a"
        }
      ]
    },
    {
      "name": "P2 Laboratory",
      "description": "Team Plasma's secret lab is located on a quiet little island.",
      "connections": [
        {
          "region": "Unova",
          "location": "Route 17",
          "direction": "a"
        },
        {
          "region": "Unova",
          "location": "Plasma Frigate",
          "direction": "a"
        }
      ]
    },
    {
      "name": "Unity Tower",
      "description": "A skyscraper where people from all over the world can communicate.",
      "connections": [
        {
          "region": "Unova",
          "location": "Castelia City",
          "direction": "f"
        }
      ]
    },
    {
      "name": "Floccesy Ranch",
      "description": "Before long, the area became a ranch as Pokémon and people gathered.",
      "connections": [
        {
          "region": "Unova",
          "location": "Route 20",
          "direction": "a"
        }
      ]
    },
    {
      "name": "Pledge Grove",
      "description": "Inside this grove is a giant monolith with unnatural marks on it.",
      "connections": [
        {
          "region": "Unova",
          "location": "Floccesy Town",
          "direction": "a"
        }
      ]
    },
    {
      "name": "Virbank Complex",
      "description": "A complex that is designed so Pokémon can work there easily.",
      "connections": [
        {
          "region": "Unova",
          "location": "Virbank City",
          "direction": "a"
        }
      ]
    },
    {
      "name": "Pokéstar Studios",
      "description": "Pokéstar Studios, where great movies are produced.",
      "connections": [
        {
          "region": "Unova",
          "location": "Virbank City",
          "direction": "a"
        }
      ]
    },
    {
      "name": "Castelia Sewers",
      "description": "Iron bars around the exits were dismantled, drawing curious Trainers.",
      "connections": [
        {
          "region": "Unova",
          "location": "Castelia City",
          "direction": "a"
        },
        {
          "region": "Unova",
          "location": "Relic Passage",
          "direction": "a"
        }
      ]
    },
    {
      "name": "Join Avenue",
      "description": "A big avenue that keeps developing as you communicate with more people.",
      "connections": [
        {
          "region": "Unova",
          "location": "Route 4",
          "direction": "a"
        },
        {
          "region": "Unova",
          "location": "Nimbasa City",
          "direction": "a"
        }
      ]
    },
    {
      "name": "Cave of Being",
      "description": "They say the deepest part of the cave leads to the Sinnoh region.",
      "connections": [
        {
          "region": "Unova",
          "location": "Route 20",
          "direction": "a"
        }
      ]
    },
    {
      "name": "Pokémon World Tournament",
      "description": "Trainers who are proud of their skills compete in tournaments.",
      "connections": [
        {
          "region": "Unova",
          "location": "Driftveil City",
          "direction": "a"
        },
        {
          "region": "Unova",
          "location": "Relic Passage",
          "direction": "a"
        }
      ]
    },
    {
      "name": "Reversal Mountain",
      "description": "A volcano that grabs headlines for its many recent eruptions.",
      "connections": [
        {
          "region": "Unova",
          "location": "Lentimas Town",
          "direction": "a"
        },
        {
          "region": "Unova",
          "location": "Undella Town",
          "direction": "a"
        },
        {
          "region": "Unova",
          "location": "Strange House",
          "direction": "a"
        }
      ]
    },
    {
      "name": "Strange House",
      "description": "A house known for a sad incident that is said to keep people away.",
      "connections": [
        {
          "region": "Unova",
          "location": "Reversal Mountain",
          "direction": "a"
        }
      ]
    },
    {
      "name": "Plasma Frigate",
      "description": "A mysterious black vessel seen in various locations in Unova.",
      "connections": [
        {
          "region": "Unova",
          "location": "P2 Laboratory",
          "direction": "a"
        }
      ]
    },
    {
      "name": "Clay Tunnel",
      "description": "A tunnel created by Clay's constant mining. It leads to Twist Mountain.",
      "connections": [
        {
          "region": "Unova",
          "location": "Driftveil City",
          "direction": "a"
        },
        {
          "region": "Unova",
          "location": "Mistralton Cave",
          "direction": "a"
        },
        {
          "region": "Unova",
          "location": "Twist Mountain",
          "direction": "a"
        },
        {
          "region": "Unova",
          "location": "Underground Ruins",
          "direction": "a"
        }
      ]
    },
    {
      "name": "Underground Ruins",
      "description": "Ancient ruins located deep underground. These ruins were discovered while Clay Tunnel was being dug, but the purpose of this place is unknown.",
      "connections": [
        {
          "region": "Unova",
          "location": "Clay Tunnel",
          "direction": "a"
        }
      ]
    },
    {
      "name": "Relic Passage",
      "description": "A recently discovered passage that leads to the Relic Castle.",
      "connections": [
        {
          "region": "Unova",
          "location": "Castelia Sewers",
          "direction": "a"
        },
        {
          "region": "Unova",
          "location": "Pokémon World Tournament",
          "direction": "a"
        },
        {
          "region": "Unova",
          "location": "Relic Castle",
          "direction": "a"
        }
      ]
    },
    {
      "name": "Seaside Cave",
      "description": "A rock that became passable due to wind, waves, and Pokémon.",
      "connections": [
        {
          "region": "Unova",
          "location": "Route 21",
          "direction": "a"
        },
        {
          "region": "Unova",
          "location": "Undella Bay",
          "direction": "a"
        }
      ]
    },
    {
      "name": "White Treehollow",
      "description": "A tall, hollowed tree located in White Forest. Trainers can battle their way to the top of the tree to earn great rewards.",
      "connections": [
        {
          "region": "Unova",
          "location": "White Forest",
          "direction": "a"
        }
      ]
    },
    {
      "name": "Black Tower",
      "description": "A tall, dark skycraper located in Black City. Trainers can battle their way to the top of the tower to earn great rewards.",
      "connections": [
        {
          "region": "Unova",
          "location": "Black City",
          "direction": "a"
        }
      ]
    },
    {
      "name": "Nature Preserve",
      "description": "A remote preserve far from the civilized area of Unova. Very few people are able to access this preserve, which is why many different Pokémon live here.",
      "connections": [
        {
          "region": "Unova",
          "location": "Mistralton City",
          "direction": "a"
        }
      ]
    }
  ]
}